,opis_truckstop_id,truckstop_name,address,city,state,rack_id,retail_price,lat,lng
0,7,Woodshed Of Big Cabin,"I-44, EXIT 283 & US-69",Big Cabin,OK,307,3.00733333,36.5423,-95.222
1,9,Kwik Trip #796,"I-94, EXIT 143 & US-12 & SR-21",Tomah,WI,420,3.28733333,43.9879,-90.4999
2,20,Pilot Travel Center #1243,"I-8, EXIT 119 & SR-85",Gila Bend,AZ,930,3.899,32.9662,-112.7154
3,20,Pilot #1243,"I-8, EXIT 119 & SR-85",Gila Bend,AZ,930,3.899,32.9662,-112.7154
4,28,Littlefield Express #2,"I-540, EXIT 12 & US-71",Fort Smith,AR,645,3.399,35.3495,-94.3695
5,35,Aci Truck Stop,US-46,Columbia,NJ,90,3.079,40.926,-75.0945
6,36,Shenandoah Truck Center,"I-81, EXIT 273 & SR-703/SR-292",Mount Jackson,VA,60,2.899,38.739,-78.651
7,44,Circle K #2612042,"I-35,  EXIT 271",Jarrell,TX,595,2.919,30.8103,-97.6144
8,46,Petro Stopping Center #348,"I-85,  EXIT 22 & CR-138",Shorter,AL,720,3.154,32.4077,-85.9413
9,49,Ta Seymour Travel Center,"I-65, EXIT 50 & US-50 & US-31",Seymour,IN,415,3.959,38.9476,-85.8911
10,50,Ta Council Bluffs Travel Center,"I-29 & I-80, EXIT 3",Council Bluffs,IA,319,3.72566666,41.2369,-95.8516
11,56,Tops Truck Stop,"I-94, EXIT 182 & US-83",Sterling,ND,390,3.51566666,,
12,75,Good 2 Go #709,US-50,Montrose,CO,810,3.424,38.4689,-107.859
13,77,Oasis Travel Plaza,US-13,Laurel,DE,243,3.229,38.5691,-75.5689
14,79,Delaware Truck Plaza,US-13 & US-40,New Castle,DE,243,3.249,39.6681,-75.5697
15,81,One9 #89,"I-75, EXIT 224",Ellenton,FL,225,3.439,27.5269,-82.5258
16,85,Downieville Fuel Stop,"I-70, EXIT 234",Dumont,CO,800,3.459,,
17,91,Mollys Food & Fuel,"I-20 & ST 22, EXIT 55",Crawfordville,GA,135,3.499,33.5545,-82.8966
18,105,Ta Saginaw I 75 Travel Center,"I-75, EXIT 144-B",Bridgeport,MI,260,3.269,43.3706,-83.8827
19,105,Ta Saginaw I 75 Travel Center,"I-75, EXIT 144-B",Bridgeport,MI,260,3.339,43.3706,-83.8827
20,105,Ta Saginaw I 75 Travel Center,"I-75, EXIT 144-B",Bridgeport,MI,260,3.429,43.3706,-83.8827
21,105,Ta Saginaw I 75 Travel Center,"I-75, EXIT 144-B",Bridgeport,MI,260,3.289,43.3706,-83.8827
22,105,Ta Saginaw I 75 Travel Center,"I-75, EXIT 144-B",Bridgeport,MI,260,3.399,43.3706,-83.8827
23,105,Ta Saginaw I 75 Travel Center,"I-75, EXIT 144-B",Bridgeport,MI,260,3.299,43.3706,-83.8827
24,118,Lupton Truck Stop #567,"I-40, EXIT 359",Lupton,AZ,580,3.299,35.3547,-109.0527
25,121,Petro Stopping Center #306,"I-10, EXIT 200",Eloy,AZ,930,3.474,32.747,-111.5992
26,127,Circle K #4700095,US-41,Henderson,KY,340,3.609,37.8397,-87.5798
27,128,The Effingham Chrome Shop,"I-57 & I-70, EXIT 159",Effingham,IL,510,3.399,39.1205,-88.5509
28,128,The Effingham Chrome Shop,"I-57 & I-70, EXIT 159",Effingham,IL,510,3.349,39.1205,-88.5509
29,128,The Effingham Chrome Shop,"I-57 & I-70, EXIT 159",Effingham,IL,510,3.549,39.1205,-88.5509
30,135,Loves Travel Stop #766,"I-80, EXIT 27",Atkinson,IL,290,3.589,41.4168,-90.0087
31,135,Loves Travel Stop #766,"I-80, EXIT 27",Atkinson,IL,290,3.389,41.4168,-90.0087
32,135,Loves Travel Stop #766,"I-80, EXIT 27",Atkinson,IL,290,3.449,41.4168,-90.0087
33,147,Speedway #8039,"I-69, EXIT 234 & SR-67",Daleville,IN,375,3.624,40.1187,-85.5567
34,149,Rays Truck Wash,"I-69, EXIT 309 & US-30",Fort Wayne,IN,370,3.59233333,41.0888,-85.1436
35,151,Cubbys #2101,"I-80, EXIT 211 & SR-47",Gothenburg,NE,475,3.13233333,40.9242,-100.154
36,159,Pilot Travel Center #87,"I-10, EXIT 343",Jacksonville,FL,75,3.859,30.3322,-81.6749
37,159,Pilot Travel Centers #87,"I-10, EXIT 343",Jacksonville,FL,75,3.859,30.3322,-81.6749
38,160,Pilot Travel Centers #79,"I-12, EXIT 10 AT MILE 10",Denham Springs,LA,600,3.23233333,30.4743,-90.9593
39,164,Flying J Travel Plaza #650,"I-94, EXIT 15 B",Lake Station,IN,365,3.809,41.5729,-87.2599
40,167,Flying J Travel Plaza #653,RT 2 & I-65 EXIT 240,Hebron,IN,365,3.43566666,41.3247,-87.2018
41,174,Hop-In Food Stores,US-59 & SR-224,Nacogdoches,TX,618,2.859,31.6134,-94.6528
42,184,Sapp Bros Travel Center,"I-29 & I-80, EXIT 1B",Council Bluffs,IA,486,3.719,41.2369,-95.8516
43,186,Coffee Cup Fuel Stop #5,"I-90, EXIT 154 & US-16",Moorcroft,WY,822,3.239,44.2645,-104.9476
44,187,Dudleys Corner,"I-35, EXIT 165 & SR-3",Latimer,IA,433,3.23233333,42.763,-93.3658
45,191,Kum & Go #0302,"I-35, EXIT 193 & SR 106",Clear Lake,IA,433,3.18566666,43.1347,-93.374
46,192,Brew Stuart Truckstop,"I-80, EXIT 93",Stuart,IA,320,3.099,41.5004,-94.3182
47,195,Petro Stopping Center #311,"I-40 & I-55, EXIT 280",West Memphis,AR,435,3.36733333,35.153,-90.1996
48,198,Sinclair,"I-76, EXIT 115",Atwood,CO,800,3.299,40.5505,-103.2746
49,199,Petro Stopping Center #366,"I-70, EXIT 252",Salina,KS,523,3.80566666,38.8136,-97.6143
50,203,Pilot Travel Center #31,"I-80/94, EXIT 2",Highland,IN,365,3.829,41.5483,-87.4588
51,203,Pilot Travel Centers #31,"I-80/94, EXIT 2",Highland,IN,365,3.799,41.5483,-87.4588
52,207,Marathon,SR-32,Sardinia,OH,300,3.56566666,39.0071,-83.802
53,216,Circle K #2721593,"I-10, EXIT 50",Ocean Springs,MS,715,3.41566666,30.4082,-88.7861
54,217,North 9Th 24/7,"I-70, EXIT 252",Salina,KS,523,3.02566666,38.8136,-97.6143
55,231,Derby Citys Truck Plaza,"I-75, EXIT 62 & US-25",Mount Vernon,KY,410,2.999,37.3654,-84.3401
56,235,Pilot Travel Centers #92,"I-75, EXIT 358",Ocala,FL,225,3.359,29.178,-82.1511
57,235,Pilot Travel Center #92,"I-75, EXIT 358",Ocala,FL,225,3.41233333,29.178,-82.1511
58,240,La 1 South Truckstop,"I-10, EXIT 153 & SR-1",Port Allen,LA,600,3.039,30.4456,-91.2098
59,243,Save,US-41 & SR-10,Lake Village,IN,399,3.179,41.1308,-87.439
60,244,Big D Truck Travel Plaza,"I-10, EXIT 92 & SR-95",Duson,LA,725,2.98233333,30.2365,-92.193
61,248,Mardi Gras Truck Stop,"I-10, EXIT 236",New Orleans,LA,725,3.729,30.0687,-89.9288
62,250,Golden Ox Truck Stop,"I-70/US-40, EXIT 159 & US-183",Hays,KS,523,3.499,38.8821,-99.3221
63,253,Loves Travel Stop #450,"I-40, EXIT 280 & I-55, EXIT 4",West Memphis,AR,435,3.32566666,35.153,-90.1996
64,256,Bfs Foods #66,"I-68/US-40, EXIT 22 & US-219",Grantsville,MD,165,3.899,39.6969,-79.1528
65,257,Pilot Travel Center #917- Town Pump,I-15 & 31ST STREET EXIT 277,Great Falls,MT,815,3.63566666,47.5022,-111.2996
66,263,Caseys #3956,I-94 EXIT 16,Bridgman,MI,465,3.559,41.9396,-86.5652
67,267,Corner Market #117,SR-154 & SR-129,Dodge City,KS,357,3.399,37.7611,-100.0182
68,269,Pilot Travel Centers #24,"I-75, EXIT 15",Monroe,MI,325,3.299,41.9155,-83.3849
69,269,Pilot Travel Centers #24,"I-75, EXIT 15",Monroe,MI,325,3.249,41.9155,-83.3849
70,269,Pilot Travel Centers #24,"I-75, EXIT 15",Monroe,MI,325,3.439,41.9155,-83.3849
71,269,Pilot Travel Centers #24,"I-75, EXIT 15",Monroe,MI,325,3.349,41.9155,-83.3849
72,269,Pilot Travel Centers #24,"I-75, EXIT 15",Monroe,MI,325,3.559,41.9155,-83.3849
73,278,Carlisle Plaza,US-41,Carlisle,IN,510,3.499,38.9608,-87.4014
74,281,Circle K #4700065,"I-65, EXIT 76 & US-31",Taylorsville,IN,375,3.399,39.2964,-85.9502
75,289,Loves Travel Stop #173,"I-70, MM 209",Lawrence,KS,553,3.229,38.9597,-95.2642
76,292,Petes #56,US-169 & CR-5000,Cherryvale,KS,307,3.23233333,37.269,-95.5536
77,293,Loves Travel Stop #176,"I-35, MILE MARKER 97",Matfield Green,KS,336,3.25566666,38.1596,-96.5623
78,304,Fl Roberts,"I-91, EXIT 4",Springfield,MA,100,3.599,42.1155,-72.5395
79,309,Quiktrip #231,"I-635, EXIT 3",Kansas City,KS,400,3.199,39.1235,-94.7443
80,323,Sapp Bros Travel Center,"I-80, EXIT 126",Ogallala,NE,475,3.46566666,41.1292,-101.7211
81,326,Flying J Travel Plaza #748,"I-15, EXIT 357",Willard,UT,835,3.749,41.4148,-112.0448
82,341,Ta Jacksonville South Travel Center,"I-95, EXIT 329",Saint Johns,FL,75,3.469,,
83,347,7-Eleven #40514,I-90/80-IN TOLL RD MM 22E,Portage,IN,365,3.99066666,41.5856,-87.1797
84,358,Ta Binghamton Travelcenter,"I-81N, EXIT 2W & I-81S, EXIT 3",Binghamton,NY,32,3.769,42.1014,-75.9093
85,358,Ta Binghamton Travelcenter,"I-81N, EXIT 2W & I-81S, EXIT 3",Binghamton,NY,32,3.689,42.1014,-75.9093
86,358,Ta Binghamton Travelcenter,"I-81N, EXIT 2W & I-81S, EXIT 3",Binghamton,NY,32,3.699,42.1014,-75.9093
87,358,Ta Binghamton Travelcenter,"I-81N, EXIT 2W & I-81S, EXIT 3",Binghamton,NY,32,3.739,42.1014,-75.9093
88,361,Circle K #2726293,"I-295, EXIT 25",Jacksonville,FL,75,3.31566666,30.3322,-81.6749
89,368,Wilton Travel Plaza,"I-87, EXIT 16",Gansevoort,NY,12,3.749,,
90,368,Wilton Travel Plaza,"I-87, EXIT 16",Gansevoort,NY,12,3.799,,
91,372,Gas Depot,"I-94, EXIT 5",Hammond,IN,365,3.999,41.6168,-87.4909
92,381,7-Eleven #41830,US-69 & US-135,Jacksonville,TX,630,2.91566666,31.9642,-95.2617
93,387,Circle K #2709664,"I-8, EXIT 12",Yuma,AZ,930,3.489,32.5995,-114.5491
94,388,Pilot Travel Centers #14,"I-71, EXIT 131",Sunbury,OH,315,3.719,40.2485,-82.8806
95,391,Pilot Travel Centers #13,"I-71, EXIT 209",Seville,OH,305,3.699,41.0207,-81.8671
96,403,Truckomat Of Hebron,"I-70, EXIT 126 & SR-37",Hebron,OH,315,3.429,39.9644,-82.4898
97,407,Fuel Mart #641,"I-80 & I-280, EXIT 71",Perrysburg,OH,550,3.499,41.5377,-83.6413
98,421,Petro Stopping Center #316,"I-40 & I-35, EXIT 127",Oklahoma City,OK,483,3.30233333,35.4676,-97.5136
99,424,E Express,"I-40, EXIT 166",Choctaw,OK,483,2.899,35.4802,-97.2666
100,425,Neighbors Express,"I-16, EXIT 51",Dublin,GA,85,3.299,32.536,-82.928
101,442,Western Coop,US-385 & SR-2,Alliance,NE,795,3.324,42.1025,-102.8766
102,455,Mr Fuel #753,"I-95, EXIT 104 & SR-207",Ruther Glen,VA,180,3.26566666,,
103,456,The Country Oasis,US-24,Woodburn,IN,370,3.399,41.1287,-84.8503
104,458,Happy Hills Gas & Coffee,I-29 EXIT 110,Rock Port,MO,400,3.399,40.4109,-95.5332
105,460,Truck Stop 44,I-20 EXIT 44,Gilbert,SC,135,3.079,33.9245,-81.3928
106,461,Spinx #271,"I-26, EXIT 145 & US-601",Orangeburg,SC,42,3.26233333,33.4928,-80.8671
107,469,Loaf N Jug #750010,US-160 & SR-17,Alamosa,CO,803,3.259,37.4752,-105.877
108,474,Kewanee 1 Stop,"I-20, EXIT 169 & US-80",Toomsuba,MS,705,3.299,32.4267,-88.51
109,478,Gastrak Of Pembina,"I-29, EXIT 215",Pembina,ND,355,3.299,48.9669,-97.2475
110,483,Allsups #2387,US-54/SR-136/SR-3 & US-64,Guymon,OK,585,2.97566666,36.6903,-101.4774
111,486,La Noria Conv Stores,"I-35 N, EXIT 4",Laredo,TX,693,3.299,27.5625,-99.4874
112,489,Eddies Corner,US-87 & US-191,Moore,MT,815,3.749,46.975,-109.6949
113,491,One9 #403,"I-75, EXIT 117",Heiskell,TN,405,2.999,,
114,496,Pilot Travel Centers #270,"I-40 & I-75, EXIT 374",Knoxville,TN,405,3.439,35.9692,-83.9496
115,509,Loves Travel Stops #256,"I-10, EXIT 140B",Van Horn,TX,640,3.649,31.0407,-104.8341
116,509,Loves Travel Stop #256,"I-10, EXIT 140B",Van Horn,TX,640,3.649,31.0407,-104.8341
117,522,Go Mart Food Store #57,"I-70 & ST-285, EXIT 186",Lore City,OH,430,3.179,39.9832,-81.46
118,523,Circle K #2723322,"I-985, EXIT 20 & SR-60",Gainesville,GA,18,3.26566666,34.2902,-83.8294
119,525,Fastbreak,US-45 ALT,West Point,MS,705,3.059,33.6064,-88.6572
120,546,Plaza 30,US-30,Wanatah,IN,365,3.499,41.4305,-86.8926
121,557,Sapp Bros Travel Center,"I-80, EXIT 73",Peru,IL,290,3.389,41.3482,-89.1371
122,557,Sapp Bros Travel Center,"I-80, EXIT 73",Peru,IL,290,3.589,41.3482,-89.1371
123,557,Sapp Bros Travel Center,"I-80, EXIT 73",Peru,IL,290,3.449,41.3482,-89.1371
124,557,Sapp Bros Travel Center,"I-80, EXIT 73",Peru,IL,290,3.289,41.3482,-89.1371
125,559,Shell Morgan Road Truck Stop,"I-40, EXIT 142",Maumelle,AR,695,3.20733333,34.8522,-92.4
126,566,Ta Gary Travel Center,"I-80/I-94, EXIT 6",Gary,IN,365,3.83066666,41.5905,-87.3473
127,567,Ta Eloy Travel Center,"I-10 & I-8, EXIT 203",Eloy,AZ,930,3.459,32.747,-111.5992
128,572,Pilot Travel Center #881,"I-69, EXIT 309A",Fort Wayne,IN,370,3.899,41.0888,-85.1436
129,572,Pilot Travel Centers #881,"I-69, EXIT 309A",Fort Wayne,IN,370,3.879,41.0888,-85.1436
130,576,Petro Stopping Center #343,"I-10, EXIT 76",Egan,LA,600,3.624,30.246,-92.5135
131,578,Loves Travel Stop #449,"I-84, EXIT 17",Troutdale,OR,935,3.779,45.5372,-122.3955
132,579,Flying J Travel Plaza #764,"I-80, EXIT 104 & US-191",Rock Springs,WY,835,3.67066666,41.5947,-109.2209
133,586,Ameristar Travel Plaza #120,"I-82, EXIT 80",Prosser,WA,925,4.399,46.2068,-119.7663
134,586,Ameristar Travel Plaza #120,"I-82, EXIT 80",Prosser,WA,925,4.559,46.2068,-119.7663
135,588,Ta Tuscaloosa Travel Center,"I-20/I-59, EXIT 77",Cottondale,AL,615,2.964,33.1923,-87.4543
136,591,Ta Concordia Travel Plaza,"I-70, EXIT 58 & SR-23",Concordia,MO,400,3.22566666,38.9878,-93.5683
137,599,Sapp Bros Travel Center,"I-80, EXIT 59 & SR-17J",Sidney,NE,475,3.50066666,41.1341,-102.9681
138,602,Jiffy Mart Exit 18 Truck Stop,"I-89/SR-120, EXIT 18 & SR-120",Lebanon,NH,12,3.599,43.6353,-72.2531
139,614,Ta Maybrook Travel Center,"I-84, EXIT 5",Montgomery,NY,120,4.359,,
140,628,Kwik Fill #227,"I-90,  EXIT 218",Geneva,OH,305,3.15233333,41.8007,-80.9461
141,629,Flying J #850,TCH-16,Edmonton,AB,80,4.39948962,,
142,629,Flying J #850,TCH-16,Edmonton,AB,80,4.39625375,,
143,629,Flying J #850,TCH-16,Edmonton,AB,80,4.40695023,,
144,629,Flying J #850,TCH-16,Edmonton,AB,80,4.40630048,,
145,629,Flying J #850,TCH-16,Edmonton,AB,80,4.39722401,,
146,629,Flying J #850,TCH-16,Edmonton,AB,80,4.3981947,,
147,636,Union 76,"I-5, EXIT 233 E",Albany,OR,935,3.379,44.6272,-123.0965
148,651,One9 #1366,"I-40, EXIT 126 & US-641",Holladay,TN,460,2.98566666,35.872,-88.1449
149,652,Ta Knoxville East Travel Center,"I-40 & I-75, EXIT 374",Knoxville,TN,405,3.42566666,35.9692,-83.9496
150,659,Flying J #869,HWY 2 SOUTH,Nanton,AB,50,4.39948962,,
151,659,Flying J #869,HWY 2 SOUTH,Nanton,AB,50,4.59317483,,
152,659,Flying J #869,HWY 2 SOUTH,Nanton,AB,50,4.59114784,,
153,659,Flying J #869,HWY 2 SOUTH,Nanton,AB,50,4.60163996,,
154,659,Flying J #869,HWY 2 SOUTH,Nanton,AB,50,4.59216111,,
155,659,Flying J #869,HWY 2 SOUTH,Nanton,AB,50,4.60231851,,
156,669,Petro Stopping Center #350,"I-10,  EXIT 4",Canutillo,TX,640,3.499,31.9185,-106.6006
157,672,Crown Point Truck Stop,"I-295/US-130,EXIT 22",Thorofare,NJ,150,3.549,39.8515,-75.1988
158,680,Ta Express Summit,"I-29, EXIT 207 & US-12",Summit,SD,566,3.20566666,45.3056,-97.0391
159,684,7-Eleven #35101,"I-86/SR-17, EXIT 16",Randolph,NY,38,4.499,,
160,689,Flying Eagle,"I-235, EXIT 4",Wichita,KS,570,3.499,37.6895,-97.3443
161,692,Bp,US-63,Ottumwa,IA,489,3.399,41.0195,-92.4186
162,739,Arco #364420,US-23,Greenup,KY,255,3.649,38.5578,-82.8191
163,748,Quiktrip #4231,US-85,Evans,CO,800,3.17233333,40.366,-104.739
164,769,Ayerco #26,US-61/US-136,Alexandria,MO,345,3.01566666,40.3598,-91.4595
165,815,Kwik Trip #1508,"US-18/SR-151, EXIT 58",Barneveld,WI,420,3.489,43.0117,-89.8969
166,855,Speedway #7459,US-41 & SR-137,North Chicago,IL,293,3.379,42.3172,-87.8595
167,855,Speedway #7459,US-41 & SR-137,North Chicago,IL,293,3.499,42.3172,-87.8595
168,855,Speedway #7459,US-41 & SR-137,North Chicago,IL,293,3.289,42.3172,-87.8595
169,863,Ocean Fuel,US-301/SR-73,Sylvania,GA,195,3.499,32.7466,-81.6409
170,906,Pilot Travel Centers #429,"I-40, EXIT 280",West Memphis,AR,435,3.499,35.153,-90.1996
171,906,Pilot Travel Center #429,"I-40, EXIT 280",West Memphis,AR,435,3.291,35.153,-90.1996
172,908,Circle K #2704888,"I-65, EXIT 246 & SR-119",Pelham,AL,615,3.46566666,33.3114,-86.7573
173,912,Petro Stopping Center #319,"I-20/59,  EXIT 100",Mc Calla,AL,615,3.12566666,,
174,936,Caseys #4254,"I-40, EXIT 129",Conway,AR,695,3.03233333,35.0753,-92.4692
175,970,Circle K #2702885,"I-17/SR-60, EXIT 199A",Phoenix,AZ,930,3.39233333,33.5722,-112.0892
176,977,Pilot Travel Center #328,"I-10, EXIT 17",Quartzsite,AZ,930,3.959,33.6675,-114.2171
177,977,Pilot Travel Centers #328,"I-10, EXIT 17",Quartzsite,AZ,930,3.959,33.6675,-114.2171
178,981,Stinker #85,"I-15, EXIT 93",Blackfoot,ID,825,3.53233333,43.194,-112.3454
179,982,Circle K #2701948,"I-8, EXIT 7 & SR-195",Yuma,AZ,900,3.56566666,32.5995,-114.5491
180,1028,Four States Truck Stop,"I-495, EXIT 4 & SR-9",New Castle,DE,243,3.449,39.6681,-75.5697
181,1028,Four States Truck Stop,"I-495, EXIT 4 & SR-9",New Castle,DE,243,3.399,39.6681,-75.5697
182,1042,Union 76,US-441 & SR-100A,Lake City,FL,75,3.56233333,30.1901,-82.6471
183,1043,One9 #1401,I-75 EXIT 414  & US-41,Lake City,FL,75,3.259,30.1901,-82.6471
184,1043,Shell Dba One9 #1401,I-75 EXIT 414  & US-41,Lake City,FL,75,3.244,30.1901,-82.6471
185,1047,Ta Marianna Travel Center,"I-10/SR-8, EXIT 142 & SR-71",Marianna,FL,20,3.60733333,30.7943,-85.2259
186,1075,Pilot Travel Center #68,"I-16 /SR-404, EXIT 51 & US-441",Dublin,GA,85,3.43233333,32.536,-82.928
187,1075,Pilot Travel Centers #68,"I-16 /SR-404, EXIT 51 & US-441",Dublin,GA,85,3.399,32.536,-82.928
188,1106,Circle K #2705367,"I-20, EXIT 172",Thomson,GA,16,3.399,33.4679,-82.4968
189,1112,Bc Ampride Truck Plaza,US-59/SR-141,Denison,IA,527,3.399,42.0162,-95.3528
190,1115,Kwik Star #704,SR-57/SR-14,Parkersburg,IA,565,3.58233333,42.5739,-92.7785
191,1121,Travelers Oasis,"I-84, EXIT 182",Eden,ID,787,3.799,42.6053,-114.209
192,1128,Ta Chicago North Travel Center,"I-94/US-41, EXIT 1",Wadsworth,IL,444,3.819,42.4448,-87.9202
193,1128,Ta Chicago North Travel Center,"I-94/US-41, EXIT 1",Wadsworth,IL,444,3.879,42.4448,-87.9202
194,1128,Ta Chicago North Travel Center,"I-94/US-41, EXIT 1",Wadsworth,IL,444,3.779,42.4448,-87.9202
195,1128,Ta Chicago North Travel Center,"I-94/US-41, EXIT 1",Wadsworth,IL,444,3.769,42.4448,-87.9202
196,1132,Speedway #7423,"I-57, EXIT 83",Ina,IL,293,3.249,38.1499,-88.904
197,1136,Pilot Travel Center #171,"I-74, EXIT 206",Oakwood,IL,280,3.399,40.1101,-87.7769
198,1136,Pilot Travel Center #171,"I-74, EXIT 206",Oakwood,IL,280,3.499,40.1101,-87.7769
199,1136,Pilot Travel Center #171,"I-74, EXIT 206",Oakwood,IL,280,3.599,40.1101,-87.7769
200,1140,Circle K #4701398,"I-55, EXIT 82 & SR-104",Divernon,IL,280,3.499,39.5707,-89.6547
201,1149,Pilot Travel Center #30,"I-70, EXIT 96",Greenfield,IN,375,3.959,39.7937,-85.7738
202,1149,Pilot Travel Centers #30,"I-70, EXIT 96",Greenfield,IN,375,3.959,39.7937,-85.7738
203,1151,Speedway #8061,"I-70, EXIT 115 & SR-109",Knightstown,IN,375,3.759,39.7959,-85.5312
204,1154,Circle K #2704691,SR-71 & CR-214,Cedar Creek,TX,595,3.199,30.0811,-97.518
205,1156,Circle K #4700028,"I-74/US-421, EXIT 116 & SR-44",Shelbyville,IN,375,3.599,39.5352,-85.7793
206,1157,One9 #297,"I-70, EXIT 11 & SR-46",Terre Haute,IN,510,3.43566666,39.466,-87.3751
207,1158,Pilot Travel Centers #36,US-30  & SR-49,Valparaiso,IN,365,3.869,41.4783,-87.0506
208,1158,Pilot Travel Center #36,US-30  & SR-49,Valparaiso,IN,365,3.859,41.4783,-87.0506
209,1163,Short Stop #13,US-54,Emporia,KS,553,2.839,38.4028,-96.1932
210,1176,Pilot Travel Centers #353,"I-75, EXIT 129",Georgetown,KY,410,3.20566666,38.2247,-84.5487
211,1179,Pilot Travel Centers #399,"I-65, EXIT 105",Lebanon Junction,KY,415,3.609,37.8357,-85.7243
212,1196,Southern Belle Truck Stop,US-61 & SR-964,Saint Francisville,LA,725,3.384,,
213,1199,Alltown Markets #306,"I-190, EXIT 7",Leominster,MA,178,3.68233333,42.5209,-71.7717
214,1202,One9 #290,"I-95, EXIT 93 & SR-222",Perryville,MD,22,3.599,39.5737,-76.0668
215,1204,Petro Stopping Center #321,"I-70 & I-57, EXIT 159",Effingham,IL,574,3.549,39.1205,-88.5509
216,1204,Petro Stopping Center #321,"I-70 & I-57, EXIT 159",Effingham,IL,574,3.349,39.1205,-88.5509
217,1204,Petro Stopping Center #321,"I-70 & I-57, EXIT 159",Effingham,IL,574,3.439,39.1205,-88.5509
218,1204,Petro Stopping Center #321,"I-70 & I-57, EXIT 159",Effingham,IL,574,3.399,39.1205,-88.5509
219,1208,D Avenue Fuel Plaza,US-131,Kalamazoo,MI,465,3.499,42.2749,-85.5882
220,1208,D Avenue Fuel Plaza,US-131,Kalamazoo,MI,465,3.099,42.2749,-85.5882
221,1210,Roadhawk Travel Center,"I-94, EXIT 56 & SR-51",Paw Paw,MI,465,3.599,42.2148,-85.8919
222,1210,Roadhawk Travel Center,"I-94, EXIT 56 & SR-51",Paw Paw,MI,465,3.559,42.2148,-85.8919
223,1217,Kwik Trip #250,"I-90, EXIT 179",Austin,MN,515,3.374,43.6721,-92.9784
224,1218,Caseys #3658,SR-210,Pillager,MN,522,3.299,46.3295,-94.4796
225,1225,Ayerco #35,US-61 & US-61 BUS,Bowling Green,MO,494,3.01566666,39.3447,-91.2032
226,1234,Lamar Travel Plaza,US-71 & US-160,Lamar,MO,416,3.199,37.4945,-94.2791
227,1236,Ayerco #44,US-36 & US-24,Palmyra,MO,494,3.01566666,39.7978,-91.5265
228,1240,Temp Stop #103,US-65,Sedalia,MO,400,3.199,38.7059,-93.234
229,1247,Snappy Mart #11,US-63 & SR-14,West Plains,MO,535,3.299,36.7377,-91.868
230,1251,Mapco #3009,US-72,Corinth,MS,435,3.154,34.9474,-88.5143
231,1256,Double Quick #89,US-82/US-278,Greenville,MS,655,3.25566666,33.385,-91.0514
232,1265,Joe Joes Travel Center,US-78 & RED BANKS RD S,Red Banks,MS,435,2.97233333,34.8347,-89.5634
233,1304,Loves Travel Stop #667,"I-85, EXIT 152",Mebane,NC,65,3.94733333,36.0852,-79.2736
234,1315,Circle K #2720218,US-421 BUS & US-15/US-501/US-1,Sanford,NC,177,3.08233333,35.4875,-79.177
235,1325,Scotchman #3303,US-421 & US-74,Wilmington,NC,245,3.629,34.2099,-77.8866
236,1326,Speedway #7949,US-301/US-264 ALT & CR-1674,Wilson,NC,205,3.199,35.7311,-77.9284
237,1333,Pump & Pantry #15,US-30,Grand Island,NE,330,3.30733333,40.9218,-98.3586
238,1340,Bordentown Valero,"NJ TNPK, EXIT 7 & US-206",Bordentown,NJ,230,3.499,,
239,1342,Delta,"I-80, EXIT 47B",Fairfield,NJ,115,3.20233333,,
240,1344,Bolla Truck Stop #193,US-202 & SR-17,Mahwah,NJ,115,3.53233333,,
241,1348,Global,SR-73,Palmyra,NJ,150,3.359,40.0025,-75.036
242,1356,Loves Travel Stop #257,"I-40 & HORIZON, EXIT 79",Milan,NM,580,3.59066666,35.1949,-107.8946
243,1364,7- Eleven #40507,"I-80/I-90, MM 56 WB",Rolling Prairie,IN,465,3.98233333,41.6743,-86.6207
244,1372,Pilot Travel Center #469,"I-77, EXIT 101 & SR-627",Canton,OH,249,3.62233333,40.8078,-81.3676
245,1376,Fuel Mart #782,"I-75, EXIT 118",Lima,OH,411,3.08566666,40.741,-84.112
246,1379,Ta Lodi Travel Center,"I-71, EXIT 209 & I-76/US-224, EXIT 1",Seville,OH,305,3.739,41.0207,-81.8671
247,1384,Sunoco,"I-80/I-90, EXIT 13 & US-20ALT/SR-15",Montpelier,OH,550,3.41566666,41.5817,-84.5968
248,1391,Oncue Express #2045,"I-35, EXIT 203 & SR-15",Billings,OK,500,3.21566666,36.5316,-97.4352
249,1395,Domino Food And Fuel #1,"I-40, EXIT 66",Clinton,OK,483,3.099,35.5069,-98.9706
250,1404,One9 #339,"I-74, EXIT 4 & SR-63",Covington,IN,375,3.26233333,40.1408,-87.3917
251,1414,Sac Shop #507,"I-70, EXIT 12/161",Breezewood,PA,14,4.099,,
252,1424,Gettysburg Travel Plaza,US-15 & SR-394,Gettysburg,PA,70,3.899,39.8304,-77.2339
253,1428,Circle K #4702408,"I-65, EXIT 168 & SR-38/SR-25",Lafayette,IN,375,3.43233333,40.3991,-86.8593
254,1432,Kwik Fill #259,"I-81, EXIT 57",Mechanicsburg,PA,70,4.049,40.2115,-77.006
255,1444,Pilot Travel Centers #346,"I-20, EXIT 92 & US-601",Lugoff,SC,135,3.43233333,34.2113,-80.6973
256,1445,Pilot Travel Centers #402,"I-80, EXIT 367",Cheyenne,WY,795,3.709,41.135,-104.7902
257,1447,Hot Spot #3005,US-221,Chesnee,SC,210,3.199,35.1461,-81.863
258,1453,Express Stop,US-278/SR-101/SR-6 & SR-113,Rockmart,GA,193,3.319,34.0103,-85.044
259,1455,Petro Florence,"I-95, EXIT 169",Florence,SC,46,3.32566666,34.178,-79.7898
260,1461,Circle K #2705370,"I-26, EXIT 15 & US-176",Inman,SC,210,3.099,35.0463,-82.0897
261,1464,Circle K #2723254,"I-20, EXIT 55 & SR-6",Lexington,SC,135,3.199,33.989,-81.2202
262,1470,Circle K #2705348,US-1,Beech Island,SC,135,3.159,33.4288,-81.8905
263,1479,Ta Spartanburg Travel Center,"I-85, EXIT 63 & SR-290",Duncan,SC,210,3.43233333,34.9342,-82.1443
264,1487,Roadrunner Market #6019,"I-81, EXIT 36 NORTH",Greeneville,TN,405,3.499,36.168,-82.8197
265,1492,Mapco #3538,"I-24, EXIT 174",Chattanooga,TN,285,2.899,35.066,-85.2481
266,1507,Circle K #4703941,"I-55, EXIT 5A",Memphis,TN,435,3.189,35.1087,-89.9663
267,1516,Loves Travel Stop #261,I-27 EXIT 116,Amarillo,TX,585,3.23233333,35.1984,-101.8316
268,1531,Circlek #4702365,"I-74, EXIT 112 & SR-9",Shelbyville,IN,375,3.509,39.5352,-85.7793
269,1533,Yesway #1157,US-62,Brownfield,TX,700,2.99233333,33.1757,-102.273
270,1546,Shell,"I-35, EXIT 86 & SR-85",Dilley,TX,740,3.099,28.6675,-99.1765
271,1548,Toot N Totum #107,US-287,Dumas,TX,585,3.03233333,35.8613,-101.9642
272,1552,Stripes #40911,US-59 & SR-16,Freer,TX,625,3.099,27.8823,-98.6178
273,1555,Seibert Travel Plaza,"I-70, EXIT 405 & SR-59",Seibert,CO,800,3.499,39.298,-102.8695
274,1560,Cattrez,US-20 & SR-5,Irving,NY,38,2.899,,
275,1560,Cattrez,US-20 & SR-5,Irving,NY,38,2.999,,
276,1562,I Mart #108,"I-40, EXIT 108",Wildersville,TN,435,3.099,35.7766,-88.3561
277,1567,Kum & Go #4110,"I-235, EXIT 11",Des Moines,IA,320,3.02733333,41.5725,-93.6105
278,1579,Flying J Travel Plaza #924- Town Pump,"I-15, EXIT 122 & I-90 MM220",Butte,MT,816,3.56566666,45.902,-112.6571
279,1582,Loves Travel Stop #250,I-40 EXIT 60,Amarillo,TX,585,3.314,35.1984,-101.8316
280,1585,Stripes 7Fleet #42498,US-385 & CR-1910,Andrews,TX,710,3.369,32.3207,-102.552
281,1590,Road Ranger #240,"I-80 & I-94, EXIT 15-A",Lake Station,IN,365,3.559,41.5729,-87.2599
282,1596,Flying J #305,"I-40, EXIT 39",Jamestown,NM,580,3.44233333,35.4692,-108.4396
283,1597,7-Eleven #36156,"I-70 & SR-519, EXIT 25/333",Eighty Four,PA,165,4.999,40.1777,-80.1303
284,1599,Onvo Travel Plaza,"I-81, EXIT 10",Mc Graw,NY,220,3.439,,
285,1599,Onvo Travel Plaza,"I-81, EXIT 10",Mc Graw,NY,220,3.459,,
286,1602,Circle K #2723387,US-98,Beaumont,MS,620,3.56566666,31.1707,-88.9252
287,1606,Donnas Travel Plaza,"I-5, EXIT 202",Marysville,WA,962,4.559,48.0809,-122.1561
288,1610,Ta Baltimore Travel Center,"I-95, EXIT 57",Baltimore,MD,22,4.759,39.3051,-76.6144
289,1618,Go Mart Food Store #33,US-33,Ripley,WV,44,3.499,38.8201,-81.7091
290,1621,Circle K #2709337,"I-65, EXIT 262B",Birmingham,AL,615,3.489,33.5279,-86.7971
291,1622,Raceway #6973,US-380 & SR-114/SR-101,Bridgeport,TX,630,2.78233333,33.21,-97.7708
292,1623,Sapp Bros Travel Center,"I-70 & I-270, EXIT 278",Commerce City,CO,800,3.389,39.8641,-104.843
293,1625,Pilot Travel Centers #60,"I-26, EXIT 159",Bowman,SC,42,3.43233333,33.3483,-80.6843
294,1632,Pilot Travel Centers #266,"I-10, EXIT 139 & SR-292",Las Cruces,NM,640,3.19066666,32.3265,-106.7893
295,1633,7-Eleven #36302,"I-35, EXIT 144",Von Ormy,TX,740,3.109,29.2803,-98.6556
296,1634,Pilot Travel Centers #40,"I-94, EXIT 322",Oak Creek,WI,444,3.889,42.8803,-87.9009
297,1644,Allsups Convenience Store #2414,"I-20, EXIT 235",Roscoe,TX,575,2.929,32.4419,-100.5322
298,1646,Speedway #8310,US-6  & US-31,Plymouth,IN,465,3.609,41.3483,-86.3187
299,1647,Speedway #8305,US-41 & SR-312,Hammond,IN,290,3.76566666,41.6168,-87.4909
300,1653,Road Ranger #187,"I-55, EXIT 289",Chicago,IL,520,3.569,41.8375,-87.6866
301,1653,Road Ranger #187,"I-55, EXIT 289",Chicago,IL,520,3.599,41.8375,-87.6866
302,1654,Cefco #3,US-77/US190/SR-36,Cameron,TX,670,2.989,30.8608,-96.9763
303,1661,Chevron,"I-20, EXIT 101 & SR-151",Calhoun,LA,590,3.159,32.5153,-92.3539
304,1669,Betty Beavers Truckstop,"I-90, EXIT 28",Fultonville,NY,12,3.149,42.9463,-74.3704
305,1669,Betty Beavers Truckstop,"I-90, EXIT 28",Fultonville,NY,12,3.189,42.9463,-74.3704
306,1670,Petro Stopping Center #54,"I-44, EXIT 4 & SR-3",Joplin,MO,277,3.449,37.0757,-94.5018
307,1671,Loves Travel Stop #412,"I-95, EXIT 77",Dunn,NC,205,3.699,35.3114,-78.6129
308,1672,Hana Travel Plaza,"I-40,  EXIT 77",Amarillo,TX,585,2.899,35.1984,-101.8316
309,1699,Allens Food Mart280,US-280/US-231/SR-53/SR-38 & CR-8/CR-34,Sylacauga,AL,615,3.799,33.178,-86.2605
310,1700,Topps Fuel Stops,US-259/SR-49,Daingerfield,TX,723,3.109,33.0306,-94.725
311,1720,Toot N Totum #120,US-54 & S WESTERN AVE,Liberal,KS,585,3.01566666,37.0466,-100.9295
312,1749,Highway 96 Fuel Stop,US-96 & SR-62/FM-1004,Buna,TX,610,3.149,30.4458,-93.9625
313,1753,Pwi #169,"I-35/US-77, EXIT 359 & CR-1304",Abbott,TX,765,2.899,31.8868,-97.0799
314,1773,M-46 Auto Truck Plaza,"US-131, EXIT 120 & SR-46",Howard City,MI,344,3.199,43.3947,-85.4683
315,1773,M-46 Auto Truck Plaza,"US-131, EXIT 120 & SR-46",Howard City,MI,344,3.599,43.3947,-85.4683
316,1773,M-46 Auto Truck Plaza,"US-131, EXIT 120 & SR-46",Howard City,MI,344,3.099,43.3947,-85.4683
317,1791,Pilot Travel Centers #257,"I-20, EXIT 126 & FM-1788",Midland,TX,710,3.56566666,32.0243,-102.1147
318,1807,Loves Travel Stop #229,I-40 EXIT 96 & SR-207,Panhandle,TX,585,3.314,35.3461,-101.3804
319,1810,Kent Kwik #804,US-83,Perryton,TX,585,2.999,36.3928,-100.7976
320,1829,Pilot Travel Centers #96,"SR- 60 & FL TURNPIKE, EXIT 193",Okeechobee,FL,143,3.719,27.2413,-80.8298
321,1829,Pilot Travel Center #96,"SR- 60 & FL TURNPIKE, EXIT 193",Okeechobee,FL,143,3.699,27.2413,-80.8298
322,1832,Corner Fuel Center,US-49,Hattiesburg,MS,620,3.299,31.3074,-89.317
323,1834,Pump N Pantry #15,"I-20, EXIT 617 & US-59",Marshall,TX,766,2.899,32.537,-94.3515
324,1849,Stripes #42457,US-67/US-277,San Angelo,TX,740,3.244,31.4424,-100.4504
325,1855,Exit 76 Auto Truck Plaza,US-131,Byron Center,MI,344,3.499,42.8121,-85.7279
326,1858,Flying J Travel Plaza #737,"I-10, EXIT 583",San Antonio,TX,740,3.224,29.4632,-98.5238
327,1859,Go Mart Food Store #44,"I-79, EXIT 67 & US-19/SR-4",Sutton,WV,44,3.559,38.6663,-80.7116
328,1860,Mr Fuel #278,"I-75/71, EXIT 175 & SR-338",Walton,KY,300,3.019,38.8645,-84.6122
329,1861,Petro Stopping Center #315,"I-40, EXIT 66",Kingman,AZ,910,3.899,35.217,-114.0105
330,1866,Pri Mart Fuel Center,"I-94, EXIT 29",Benton Harbor,MI,465,3.799,42.1159,-86.4488
331,1866,Pri Mart Fuel Center,"I-94, EXIT 29",Benton Harbor,MI,465,3.499,42.1159,-86.4488
332,1873,Jds Truckstop,"US-12 & US-31, EXIT 3",Niles,MI,465,3.749,41.8346,-86.2473
333,1873,Jds Truckstop,"US-12 & US-31, EXIT 3",Niles,MI,465,3.849,41.8346,-86.2473
334,1874,Circle K #2744529,US-175,Seagoville,TX,630,2.95066666,32.653,-96.5456
335,1879,Holiday Stationstore #3552,"I-35, EXIT 81 & SR-70",Lakeville,MN,448,3.549,44.6774,-93.252
336,1888,Stripes 7Fleet #42449,US-87,Sterling City,TX,710,3.28066666,31.8392,-100.986
337,1889,Toot N Totum #105,US-54 & US-287,Stratford,TX,585,2.96566666,36.3376,-102.076
338,1893,Mike Mcdonald Truck Stop,"I-20, EXIT 509",Terrell,TX,637,2.87066666,32.734,-96.2931
339,1894,Circle K #2741544,"I-37 & SR-72, EXIT 69",Three Rivers,TX,747,3.06566666,28.4668,-98.1784
340,1897,Yesway #1077,"I-20/US-84, EXIT 278",Tye,TX,575,2.87566666,32.4522,-99.8665
341,1905,Lucky Truck Stop,US-82,Whitesboro,TX,630,2.88566666,33.6612,-96.9022
342,1909,Rallystop #1,"I-15, EXIT 62",Cedar City,UT,791,3.459,37.6834,-113.0956
343,1914,Loves Travel Stop #792,"I-70, EXIT 160",Green River,UT,835,3.709,38.9935,-110.1723
344,1921,Bell Truck Stop,"I-80, EXIT 146",Park City,UT,835,3.45233333,40.6502,-111.5013
345,1923,Scenic Quik Stop,"I-70, EXIT 54 & US-89",Salina,UT,835,3.459,38.9387,-111.8652
346,1930,Caseys #3058,"I-35, EXIT 19 & US-160 E",Wellington,KS,570,3.299,37.2625,-97.426
347,1931,Rbs One Stop,"I-15, EXIT 320",Woods Cross,UT,835,3.459,40.8731,-111.917
348,1934,Circle K #2723710,"I-77, EXIT 24",Austinville,VA,185,3.24066666,36.851,-80.9142
349,1936,Quick Stop Market #36,"I-81, EXIT 10 & US-11",Bristol,VA,185,3.399,36.6181,-82.1604
350,1940,7-Eleven #40063,"I-81, EXIT 98 & SR-100",Dublin,VA,65,3.199,37.0987,-80.6831
351,1944,Loves Travel Stops #399,"I-77, EXIT 1 & SR-620",Lambsburg,VA,65,3.589,,
352,1944,Loves Travel Stop #399,"I-77, EXIT 1 & SR-620",Lambsburg,VA,65,3.589,,
353,1950,7-Eleven #34515,"I-81, EXIT 205",King George,VA,180,3.399,38.2807,-77.1896
354,1951,Circle K #2723713,"I-81, EXIT 205",Staunton,VA,185,3.38566666,38.1593,-79.0611
355,1953,Fas Mart #3555,"I-64, EXIT 136 & US-15",Gordonsville,VA,180,3.699,38.136,-78.1879
356,1954,Joe'S Kwik Mart #8409,US-58 & CR-645,Suffolk,VA,130,3.03233333,36.6953,-76.6398
357,1956,Pilot Travel Center #4642,"I-81, EXIT 291",Toms Brook,VA,60,3.659,38.9465,-78.44
358,1958,Speedway #4618,"I-81 & I-77, EXIT 77",Wytheville,VA,185,3.41233333,36.953,-81.0881
359,1960,Maplewood Irving,"I-89, EXIT 7",Montpelier,VT,170,3.699,44.2659,-72.5717
360,1962,Super Quik,"I-64, EXIT 172 & SR-1/SR-7",Grayson,KY,255,3.799,38.3317,-82.9371
361,1976,One9 #963,"I-90, EXIT 276",Spokane,WA,970,3.989,47.6671,-117.433
362,1976,One9 #963,"I-90, EXIT 276",Spokane,WA,970,3.959,47.6671,-117.433
363,1977,Gee Cees Truck Stop,"I-5, EXIT 57",Toledo,WA,977,3.839,46.4415,-122.8497
364,1983,Kwik Trip #427,"US-53, EXIT 110 & SR-40",Bloomer,WI,295,3.41566666,45.1033,-91.4915
365,1985,Camp Douglas Bp,"I-90 & I-94, EXIT 55",Camp Douglas,WI,420,3.154,43.9197,-90.2697
366,2000,River City Travel Plaza,US-41,Marinette,WI,360,3.399,45.0871,-87.6336
367,2002,Kwik Trip #222,US-53/US-2,Superior,WI,334,3.339,46.6941,-92.0823
368,2009,Kwik Trip #139,"I-43, EXIT 120 & CR-V/CR-OK",Sheboygan,WI,444,3.29066666,43.7403,-87.7316
369,2020,Bfs Foods #72,"I-68, EXIT 23 & SR-26",Bruceton Mills,WV,165,3.499,39.6594,-79.6406
370,2021,Go Mart Food Store #59,"I-64, EXIT 15 & US-60",Huntington,WV,255,3.499,38.4109,-82.4345
371,2022,Go Mart Food Store #86,"I-79, EXIT 40 & SR-16",Ivydale,WV,44,3.599,,
372,2029,Homax Service,"I-25, EXIT 188",Mills,WY,790,3.169,42.8473,-106.383
373,2030,Ghost Town Fuel Stop,US-26/US-20,Casper,WY,790,3.429,42.842,-106.3208
374,2034,Ta Cheyenne Travel Center,"I-80, EXIT 377 & SR-217/CR-140",Cheyenne,WY,795,3.699,41.135,-104.7902
375,2040,Fast Stop Travel Centers #1133,"I-25, EXIT 126 & US-18/20",Douglas,WY,790,3.499,42.7542,-105.3969
376,2041,Pine Bluffs Sinclair,"I-80, EXIT 401 & US-30",Pine Bluffs,WY,795,3.699,41.1802,-104.0748
377,2044,One9 #1251,"I-80, EXIT 173",Wamsutter,WY,795,3.499,41.668,-107.9792
378,2074,Stripes #40522,"I-10, EXIT 550",San Antonio,TX,740,3.059,29.4632,-98.5238
379,2076,Allsups Convenience Store #2159,US-283 BUS/US-277 BUS & SR-422,Seymour,TX,770,3.299,33.5958,-99.258
380,2078,Allsups Convenience Store #2366,US-84 & CR-3300,Slaton,TX,700,2.969,33.4421,-101.6476
381,2084,Main Street Market #112,"I-20, EXIT 73",Wickett,TX,710,2.879,31.5673,-103.006
382,2087,Lws Truck Stop,SR-30,Logan,UT,835,3.42566666,41.7399,-111.8422
383,2088,Flying J Travel Plaza #773,"I-70, EXIT 40",Richfield,UT,835,3.699,38.7613,-112.0931
384,2089,Flying J Travel Plaza #774,"I-84, EXIT 7",Snowville,UT,835,3.749,41.9728,-112.7164
385,2115,Kwik Trip #838,SR-23/SR-33,Reedsburg,WI,420,3.194,43.5348,-89.9965
386,2125,Big D #44,"I-80, EXIT 311 & SR-130",Laramie,WY,795,3.249,41.3099,-105.6085
387,2144,Mountain View Truck Stop,US-15,Thurmont,MD,60,4.099,39.621,-77.4076
388,2152,Speedway #4709,"I-90, EXIT 102",Fairmont,MN,425,3.299,43.6441,-94.4621
389,2167,Pilot Travel Centers #134,"I-94, EXIT 171 (CR 75)",Saint Cloud,MN,451,3.28733333,,
390,2182,Pilot Travel Center #4649,"I-64 & I-81, EXIT 205",Raphine,VA,185,3.659,,
391,2192,Go Mart Food Store #51,US-19/SR-129,Mount Nebo,WV,44,3.599,,
392,2194,A And A Truckstop,US-35 & CR-41,Jackson,OH,315,3.799,39.0448,-82.6458
393,2196,Certified Oil #400410,I-76 EXIT 43,Ravenna,OH,249,3.31566666,41.1612,-81.2422
394,2204,Natural Bridge Shell,US-278 & SR-5,Lynn,AL,615,3.68233333,34.0548,-87.5555
395,2209,Roadrunner #471,"I-40/US-65, EXIT 142 & SR-365",North Little Rock,AR,695,3.03233333,34.7807,-92.2371
396,2219,Pilot Travel Center #66,"I-85, EXIT 129",Braselton,GA,16,3.27233333,34.1087,-83.8127
397,2219,Pilot Travel Centers #66,"I-85, EXIT 129",Braselton,GA,16,3.27233333,34.1087,-83.8127
398,2223,Po Jos Gas N Go,"I-16 SR-404, EXIT 116 & US-301/SR-73",Register,GA,195,3.23233333,32.3658,-81.8845
399,2227,Speedway #7448,SR-59,Naperville,IL,293,3.299,41.748,-88.1659
400,2227,Speedway #7448,SR-59,Naperville,IL,293,3.359,41.748,-88.1659
401,2231,Quiktrip #605,"I-270, EXIT 33",Saint Louis,MO,540,2.899,,
402,2255,S&G #36,"I-280, EXIT 2 & SR-795",Millbury,OH,550,3.49233333,41.5648,-83.4255
403,2267,Circle K #4703917,"I-65, EXIT 112 & SR-25",Cross Plains,TN,460,2.949,36.5412,-86.6765
404,2283,Circle K #2707321,SR-60,Bartow,FL,225,3.52233333,27.8868,-81.8214
405,2287,Sac Shop #511,"I-76/I-70, EXIT 146 & I-99/US-220 EXIT 1",Bedford,PA,14,4.099,,
406,2306,Scotchman #3894,"I-77, EXIT 73 & SR-901",Rock Hill,SC,210,3.079,34.9415,-81.0241
407,2310,Mapco #3686,"I-24, EXIT 175",Chattanooga,TN,285,2.889,35.066,-85.2481
408,2311,Shell,"I-24 & EPPS MILL RD, EXIT 89",Christiana,TN,460,3.13233333,35.7193,-86.4129
409,2331,Pinners Point,SR-135,Portsmouth,VA,130,3.499,36.8468,-76.354
410,2336,Flying J Travel Plaza #754,"I-77 & I-81, EXIT 77",Wytheville,VA,185,3.549,36.953,-81.0881
411,2340,Rstore #4478,SR-8 & SR-13,Prentice,WI,395,3.039,45.5409,-90.2897
412,2557,Pwi #106,"I-30, EXIT 77B",Royse City,TX,630,2.899,32.9762,-96.3175
413,2602,Pilot Travel Centers #9,"I-75, EXIT 36",Franklin,OH,407,3.35233333,39.5538,-84.2952
414,2623,Ta Janesville Travel Center,"I-90/I-39, EXIT 171B & US-14",Janesville,WI,420,3.299,42.6854,-89.0135
415,2626,West End Sinclair,"I-80, EXIT 211",Rawlins,WY,838,3.319,41.7849,-107.2265
416,2629,Pilot Travel Centers #253,"I-295 & NJ TRNPK,  EXIT 2B",Penns Grove,NJ,243,3.989,39.7275,-75.4691
417,2635,Flying J #584,"I-5, EXIT 278",Aurora,OR,935,3.859,45.2284,-122.7573
418,2638,Pit Stop Travel Center,US-789,Riverton,WY,790,4.399,43.0421,-108.4144
419,2640,Little Nashville,"I-64, EXIT 50 & SR-127",Nashville,IL,540,3.399,38.3541,-89.377
420,2640,Little Nashville,"I-64, EXIT 50 & SR-127",Nashville,IL,540,3.299,38.3541,-89.377
421,2644,Fredericks Travel Center,"I-25/US-87, EXIT 235 & SR-52",Erie,CO,800,3.499,40.0404,-105.0399
422,2756,Par Mar Food Store #89,"I-77/SR-2, EXIT 170 & SR-14 E",Mineral Wells,WV,430,3.499,,
423,2761,Pony Express Service Center,US-36 & SR-148,Hanover,KS,316,2.95566666,39.8934,-96.8753
424,2764,Loves Travel Stop #046,US-64/54 & SR-94,Hooker,OK,585,3.56233333,36.8613,-101.2162
425,2765,Loves Travel Stop #023,US-50 & US-287,Lamar,CO,525,3.46233333,38.074,-102.6154
426,2772,Pilot Travel Centers #29,"I- 80, EXIT 144; I-69, EXIT 357",Fremont,IN,465,3.899,41.728,-84.9396
427,2772,Pilot Travel Center #29,"I- 80, EXIT 144; I-69, EXIT 357",Fremont,IN,465,3.899,41.728,-84.9396
428,2779,Stinker #121,I-84 & EXIT 208,Heyburn,ID,787,3.56066666,42.5599,-113.7624
429,2788,Jiffy Mart #451,"I-91, EXIT 17 & SR-302",Wells River,VT,39,3.569,44.1538,-72.0615
430,2805,Fast Stop Travel Centers #1145,"I-15,  EXIT 31",Downey,ID,825,3.799,42.4288,-112.1233
431,2807,Sudden Service #25,"I-24, EXIT 11",Clarksville,TN,460,3.30733333,36.5692,-87.3413
432,2811,Kwik Fill #22,"I-90, EXIT 40 & SR-34/SR-31",Weedsport,NY,220,3.899,43.0482,-76.5637
433,2817,Chevron #382354,"I-5/US-12, EXIT 72",Chehalis,WA,977,4.299,46.6638,-122.965
434,2848,Ta Tonopah Travel Center,"I-10, EXIT 103",Tonopah,AZ,930,3.939,33.488,-112.9308
435,2851,Speedway #2958,"I-8, EXIT 12",Yuma,AZ,900,3.479,32.5995,-114.5491
436,2862,Ta Tallulah Travel Center,"I-20, EXIT 171 & US-65",Tallulah,LA,760,3.209,32.4068,-91.1916
437,2864,Kum & Go #0493,I-49 BUS/SR-59,Neosho,MO,535,3.059,36.8437,-94.3758
438,2875,Circle K #2744138,"I-25, EXIT 101 & US-50/SR-47",Pueblo,CO,803,3.399,38.2701,-104.6114
439,2883,Pilot Travel Center #293,"I-75, EXIT 341 & CR-484",Ocala,FL,140,3.41233333,29.178,-82.1511
440,2883,Pilot Travel Centers #293,"I-75, EXIT 341 & CR-484",Ocala,FL,140,3.359,29.178,-82.1511
441,2885,Sp Truckstop & Travel Center,US-84/SR-38,Bainbridge,GA,20,3.599,30.9052,-84.5732
442,2889,Moulton Cowboys,SR-157,Moulton,AL,615,3.099,34.4844,-87.2833
443,2891,Petro Stopping Center #338,"I-80, EXIT 21",Sparks,NV,966,3.949,39.5736,-119.7161
444,2895,Eagle Truck Stop,I-77 EXIT 81,New Philadelphia,OH,249,3.31566666,40.486,-81.4401
445,2896,North Lewiston Dynamart,US-12 & SR 128,Lewiston,ID,970,3.669,46.3934,-116.9933
446,2897,Gas N Go #15,"I-80, EXIT 41",Lyman,WY,827,3.46566666,41.3274,-110.2977
447,2910,Flying J Travel Plaza #685,"I-29 & I- 94, EXIT 349",Fargo,ND,341,3.569,46.8651,-96.8292
448,2913,One9#226,"I-40, EXIT 417 & SR-92",Dandridge,TN,405,3.259,36.0284,-83.4308
449,2915,Tp Truck Stop,"I-15, EXIT 80",Fort Hall,ID,825,3.519,43.0144,-112.4572
450,2917,Goldys Truck Plaza,US-29,Rustburg,VA,185,3.519,37.2712,-79.0962
451,2922,Loves Travel Stop #210,"I-40, EXIT 158",Albuquerque,NM,580,3.52066666,35.1054,-106.6465
452,2923,Loves Travel Stop #435,"I-95, EXIT 104 & SR-207",Ruther Glen,VA,180,3.611,,
453,2923,Loves Travel Stops #435,"I-95, EXIT 104 & SR-207",Ruther Glen,VA,180,3.589,,
454,2924,Hwy 190 Fuel Stop,US-190,Jasper,TX,610,3.13233333,30.9221,-93.9947
455,2926,Exit 77 Travel Plaza,"I-81, EXIT 77 & SR-39",Harrisburg,PA,70,3.499,40.2752,-76.8843
456,2929,Ta Express Steele,"I-94, EXIT 200 & SR- 3",Steele,ND,390,3.599,46.8568,-99.9181
457,2935,Circle K #2726163,"I-295, EXIT 22",Jacksonville,FL,75,3.299,30.3322,-81.6749
458,2937,Flying J Travel Plaza #664,"I-75, EXIT 171",Walton,KY,300,3.08566666,38.8645,-84.6122
459,2956,Pilot Travel Centers #275,"I-85, EXIT 39 I-77, EXIT 13",Charlotte,NC,46,3.55233333,35.2083,-80.8303
460,2963,Superpumper #26,"I-94, EXIT 258 & US-281",Jamestown,ND,390,3.629,46.9063,-98.6937
461,2967,Petro Stopping Center #317,"I-57, EXIT 71",Perrysburg,OH,550,3.78566666,41.5377,-83.6413
462,2968,E-Z Mart #4460,"I-20,  EXIT 124",Monroe,LA,719,3.129,32.5185,-92.0774
463,2977,Discount Fuel,"I-90, EXIT 150 & SR-73",Kadoka,SD,506,3.229,43.8325,-101.5081
464,2982,Circle K #2723726,"I-59/I-20, EXIT 52 & US-11/US-43/SR-7",Knoxville,AL,705,3.089,,
465,3003,Chevron,"I-20, EXIT 186",Delta,LA,760,2.994,32.322,-90.9414
466,3008,Busy Bee,"I-10, EXIT 283 & US-129",Live Oak,FL,10,3.779,30.2957,-82.9847
467,3022,Ta Greencastle Travel Center,"I-81, EXIT 5",Greencastle,PA,70,3.959,39.7907,-77.7267
468,3030,Mr Ts Riverside,US-412,Cardwell,MO,435,3.199,36.0475,-90.2909
469,3064,Ports To Plains Travel Plaza,US-50 & US-287,Lamar,CO,800,3.399,38.074,-102.6154
470,3086,Speedway #4638,US-29,Madison Heights,VA,185,3.49566666,37.4487,-79.1057
471,3093,Rstore #4488,US-51,Merrill,WI,395,3.24066666,45.182,-89.6994
472,3096,Hobo Pantry #6,US-431/SR-210,Dothan,AL,20,3.959,31.2336,-85.407
473,3118,Mobil,"I-87, EXIT 42 & US-11",Champlain,NY,39,3.799,,
474,3128,Ta Atlanta South Travel Center,"I-75, EXIT 201 & SR-36",Jackson,GA,18,3.334,33.292,-83.9679
475,3138,Ta Express #6264,"I-70, EXIT 26 & US-50",Grand Junction,CO,800,4.049,39.0877,-108.5673
476,3139,Cherokee Travel Mart,"I-40,  EXIT 108",Calumet,OK,483,3.10566666,35.6014,-98.1248
477,3148,Yesway #1038,US-60 & SR-86,Neosho,MO,307,3.059,36.8437,-94.3758
478,3155,Quik Mart #18,US-72/SR-157,Tuscumbia,AL,615,3.00733333,34.7204,-87.7035
479,3163,Quiktrip #71,"I-44, EXIT 238",Tulsa,OK,560,3.039,36.1283,-95.9042
480,3164,Quiktrip #102,"I-44, EXIT 222A",Tulsa,OK,560,3.039,36.1283,-95.9042
481,3165,Loves Travel Stop #213,"I-35, EXIT 211",Tonkawa,OK,500,3.584,36.6769,-97.3235
482,3167,Jasper Food Mart,US-78,Jasper,AL,615,3.229,33.8508,-87.271
483,3171,One9 #265,"I-40, EXIT 287 & SR-136",Cookeville,TN,405,3.084,36.1482,-85.5109
484,3176,Bp,US-6 & SR-15,New Paris,IN,365,3.65733333,41.5005,-85.8249
485,3178,Ernies Fuel Stop #1605,SR-167,Kent,WA,977,4.599,47.3887,-122.2128
486,3179,Mr Fuel #1020,"I-80 & I-94, EXIT 15B",Lake Station,IN,365,3.56566666,41.5729,-87.2599
487,3191,Busy Corner Truck Stop And Market,"I-24, EXIT 105 & US-41/SR-2",Manchester,TN,460,3.049,35.463,-86.0774
488,3205,Crossroads Truck Stop Station,"I-29 & SR 34, MM 109",Colman,SD,530,3.159,43.9835,-96.8148
489,3206,Perham Oasis,US-10 & SR-78,Perham,MN,250,3.499,46.5999,-95.5771
490,3215,Shell Truckstop,"I-4, EXIT 44",Polk City,FL,225,3.449,28.1805,-81.8296
491,3216,Maxs #124,"I-24, EXIT 86 & US-41",Oak Grove,KY,460,3.04233333,36.6686,-87.4216
492,3221,Pilot #1440,"US-67, EXIT 55 & US-64/US-167 & SR-367",Bald Knob,AR,695,3.399,35.3123,-91.5709
493,3221,Southern Travel Plaza,"US-67, EXIT 55 & US-64/US-167 & SR-367",Bald Knob,AR,695,3.391,35.3123,-91.5709
494,3222,Pompano Truck Stop,"I-95, EXIT 36B",Pompano Beach,FL,95,3.759,26.2428,-80.1312
495,3226,One9 #245,"I-81, EXIT 77 & SR-39",Harrisburg,PA,70,3.609,40.2752,-76.8843
496,3227,One9 Mr Fuel #64,"I-26 & US-17, EXIT 199",Summerville,SC,42,3.219,33.0016,-80.1799
497,3227,Mr Fuel Dba One9 #64,"I-26 & US-17, EXIT 199",Summerville,SC,42,3.219,33.0016,-80.1799
498,3230,Stripes #40815,US-281 & US-285,Falfurrias,TX,625,3.299,27.2243,-98.1452
499,3264,Ta West Memphis Travel Center,"I-40/US-63, EXIT 260 & SR-149",Earle,AR,435,3.36733333,35.2734,-90.4642
500,3280,Outpost Truck Stop,US-85 & US-18/US-20,Lusk,WY,790,3.689,42.7613,-104.4584
501,3281,American Truck Plaza,I-80 EXIT 215 & SR-254,Milton,PA,138,3.799,41.0088,-76.8507
502,3284,Caseys #4390,"I-49/US-71, EXIT 77 & US-160",Lamar,MO,416,3.199,37.4945,-94.2791
503,3297,Sapp Bros Travel Center,"I-80, EXIT 370",Cheyenne,WY,795,3.70066666,41.135,-104.7902
504,3316,Truckomat Of N Little Rock,"I-40, EXIT 161 & SR-391",North Little Rock,AR,695,3.249,34.7807,-92.2371
505,3326,Mirabito #61,"I-81, EXIT 32",Central Square,NY,12,4.299,43.286,-76.1419
506,3330,Ta # 211 Greenland Travel Center,"I-95, EXIT 3A & US-101",Greenland,NH,34,3.759,,
507,3349,Queen City Truck Stop,"I-20 & I-59, EXIT150",Meridian,MS,705,2.939,32.3846,-88.6896
508,3383,E-Express At Central Truck Stop,"I-35, EXIT 137",Oklahoma City,OK,483,2.879,35.4676,-97.5136
509,3386,Longmont Truck Stop,"I-25/US-87, EXIT 240 & SR-119",Longmont,CO,800,3.239,40.1686,-105.1005
510,3401,Pops Mart #333,"I-77, EXIT 48 & SR-200",Winnsboro,SC,46,3.09066666,34.3718,-81.0907
511,3413,Country Girl Truck Stop,US-167 & SR-156,Winnfield,LA,590,3.319,31.924,-92.6425
512,3415,Jays El Cheapo Fuel Stop,"I-16, EXIT 104",Metter,GA,195,3.249,32.3958,-82.0621
513,3418,Par Mar Store #164,"I-79, EXIT 105 & CR-7",Jane Lew,WV,165,3.999,39.11,-80.4085
514,3421,Ernies Truck Stop,"I-5, EXIT 142",Federal Way,WA,977,4.599,47.3091,-122.3358
515,3422,Pwi #167,"I-10, EXIT 601",Seguin,TX,740,2.889,29.5891,-97.9676
516,3427,Johnnys Market,"I-69, EXIT 357",Fremont,IN,465,3.699,41.728,-84.9396
517,3432,Pilot Travel Center #34,"I-65, EXIT 201 & US-231",Remington,IN,365,3.709,40.7667,-87.1391
518,3432,Pilot Travel Centers #34,"I-65, EXIT 201 & US-231",Remington,IN,365,3.659,40.7667,-87.1391
519,3435,Pwi #168,"I-35, EXIT 266 & SR-195",Georgetown,TX,740,2.799,30.666,-97.6966
520,3444,Acme Truck Stop,US-441/SR-500,Orlando,FL,140,3.449,28.4773,-81.337
521,3460,Chrome Truck Stop,US-18 & US-169,Algona,IA,433,3.499,43.0743,-94.2311
522,3464,Boise Petroleum Llc,"I-84,  EXIT 71",Boise,ID,785,3.379,43.6005,-116.2308
523,3471,Mr Fuel Dba One9 #72,"I-16, EXIT 160",Savannah,GA,195,3.13233333,32.0286,-81.1821
524,3471,One9 Mr Fuel #72,"I-16, EXIT 160",Savannah,GA,195,3.119,32.0286,-81.1821
525,3475,Pilot Travel Centers #56,"I-85, EXIT 63",Kannapolis,NC,46,3.499,35.4764,-80.6408
526,3477,Circle K #4707404,"I-91, EXIT 7",Springfield,VT,170,3.699,,
527,3479,Fast Market #4550,"I-75/SR-401, EXIT 136 & US-341",Perry,GA,85,3.099,32.472,-83.7283
528,3493,Circle K #2723675,"I-75, EXIT 290 & SR-20",Cartersville,GA,18,3.08566666,34.1644,-84.8009
529,3519,Pilot Travel Centers #431,"I-10, EXIT 873",Orange,TX,610,3.309,30.1226,-93.7607
530,3522,Sunmart #308,US-59,Livingston,TX,610,2.859,30.71,-94.9381
531,3526,Joe Stop 99,"I-75, EXIT 99 & SR-119",Anna,OH,411,3.064,40.3957,-84.1754
532,3530,Sparkys One Stop #22,"I-35, EXIT 111B & US-30",Jefferson,IA,320,3.23233333,42.0173,-94.3799
533,3536,Petro Stopping Center #307,I-40 EAST & S LAKESIDE Dr,Amarillo,TX,585,3.279,35.1984,-101.8316
534,3539,Bigs 211,"I-10, EXIT 620 & SR-123",Seguin,TX,740,3.099,29.5891,-97.9676
535,3545,Stockmens Truck Plaza,"I-494, EXIT 64A",South Saint Paul,MN,450,3.499,,
536,3580,Stinker I 80 Travel Plaza,"I-80, EXIT 221 & SR-76",Sinclair,WY,838,3.759,41.7761,-107.1199
537,3585,Chevron,"I-80, EXIT 129",Lovelock,NV,966,3.499,40.1787,-118.4775
538,3588,Bingo Truck Stop,"I-10, EXIT 829 & SR-124",Winnie,TX,610,2.999,29.8167,-94.3807
539,3592,Ta Bridger Travel Center #188,"I-80, EXIT 30 & CR-202",Fort Bridger,WY,835,3.71566666,41.3184,-110.3894
540,3593,Ta Parowan Travel Center,"I-15, EXIT 78",Parowan,UT,910,3.70566666,37.8326,-112.8296
541,3605,Speedys #6,"I-35, EXIT 33",Saint Joseph,MO,400,3.169,,
542,3608,Fuel Mart #787,"I-57, EXIT 212 & US-36",Tuscola,IL,280,3.199,39.7968,-88.2749
543,3614,Pilot Travel Centers #35,"I-80/90, EXIT 72 & US-31",South Bend,IN,465,3.799,41.6767,-86.2696
544,3614,Pilot Travel Center #35,"I-80/90, EXIT 72 & US-31",South Bend,IN,465,3.799,41.6767,-86.2696
545,3616,Pilot Travel Centers #15,"I-75, EXIT 210",Toledo,OH,550,3.77233333,41.6638,-83.5827
546,3619,Road Ranger #141,"I-70, EXIT 23",Brazil,IN,375,3.659,39.5226,-87.124
547,3620,One9 #16,"I-71 & US-68, EXIT 50",Wilmington,OH,315,3.14233333,39.4362,-83.8141
548,3645,Snow Shoe Travel Plaza,"I-80, EXIT 147 & SR-144",Snow Shoe,PA,14,3.469,,
549,3678,Times Market #299,US-281 BUS,Alice,TX,625,3.099,27.7556,-98.0653
550,3688,Speedway #2314,"I-94, EXIT 243 & SR-29",New Baltimore,MI,342,3.559,42.6904,-82.7398
551,3688,Speedway #2314,"I-94, EXIT 243 & SR-29",New Baltimore,MI,342,3.579,42.6904,-82.7398
552,3692,Charlotte Travel Plaza,"I-77,  EXIT 16B",Charlotte,NC,46,3.53233333,35.2083,-80.8303
553,3699,Warren Travel Plaza,"I-69, EXIT 278 & SR-5",Warren,IN,375,3.399,40.6878,-85.425
554,3702,Bears Den Trading Post #101,ST 37 11 MI E OF MASSENA,Hogansburg,NY,39,3.649,,
555,3707,Speedway #4704,"I-90, EXIT 154",Albert Lea,MN,425,3.299,43.6548,-93.3643
556,3718,Speedway #4706,"I-90, EXIT 265",Chamberlain,SD,455,3.299,43.7956,-99.3263
557,3719,Keystone Truck Stop,US-22 & SR-164,Loretto,PA,14,3.999,40.5086,-78.6349
558,3725,Geneva Truck Stop,"I-79, EXIT 35/141",Cochranton,PA,240,3.81566666,41.5191,-80.047
559,3728,Plaza 23 Truck Stop,"I-787, EXIT 2",Albany,NY,12,3.799,42.6664,-73.7987
560,3737,Jordan'S Kwik Stop #70,US-49,West Helena,AR,435,3.399,,
561,3745,Pilot Travel Center #906-Town Pump,"I-90, EXIT 408 & SR-78",Columbus,MT,780,3.58066666,45.636,-109.2488
562,3759,Exxon,US-67 & SR-18,Newport,AR,695,4.13233333,35.6234,-91.2322
563,3767,Simmons Travel Center,"I-95, EXIT 8 & US-301",Emporia,VA,180,3.099,36.6953,-77.5356
564,3772,Brake Time Corner Market,"I-25, EXIT 240",Burlington,CO,800,3.499,39.3042,-102.2712
565,3774,Sinclair,"I-70, EXIT 438",Burlington,CO,796,3.889,39.3042,-102.2712
566,3781,Reatta Travel Stop,"I-76, EXIT 149 & SR-55/CR-81",Crook,CO,475,3.38233333,40.859,-102.8013
567,3783,Circle K #2744095,"I-25, EXIT 215",Denver,CO,800,3.299,39.762,-104.8758
568,3794,Speedway #4701,"I-90, EXIT 73",Jackson,MN,425,3.299,43.6265,-94.9891
569,3817,Fast Market,"I-25, EXIT 158",Colorado Springs,CO,803,3.159,38.8674,-104.7605
570,3843,Oncue Express #61,"I-35, EXIT 185 & US-77",Perry,OK,500,3.21566666,36.2837,-97.3094
571,3868,Shore Stop #279,US-13,Greenwood,DE,194,3.239,38.8072,-75.59
572,3868,Shore Stop #279,US-13,Greenwood,DE,194,3.259,38.8072,-75.59
573,3888,Fics Plaza,"I-90, EXIT 184",Deer Lodge,MT,816,3.519,46.398,-112.7334
574,3889,Circle K #2701686,"I-75, EXIT 220",Bradenton,FL,225,3.439,27.4901,-82.5757
575,3907,Sunoco,US-46 & SR-93,Palisades Park,NJ,105,3.279,40.8472,-73.9966
576,3908,Seminole Truck Stop,"I-75, EXIT 354",Fort Lauderdale,FL,95,3.699,26.1412,-80.1464
577,3927,Miccosukee Service Plaza,"I-75, EXIT 49 & SR-84",Fort Lauderdale,FL,95,3.66566666,26.1412,-80.1464
578,3936,Uncle Petes Truck  Stop,"I-40, EXIT 239 & US-70/SR-26",Lebanon,TN,460,2.989,36.204,-86.3481
579,3946,Fast Lane,US-24 & US-63,Moberly,MO,310,3.469,39.4179,-92.4364
580,3949,Sunstop #337,"I-10/SR-8, EXIT 303 & US-441",Lake City,FL,75,3.699,30.1901,-82.6471
581,3956,Circle K #2707451,US-27/SR-25 & SR-70,Lake Placid,FL,225,3.399,27.3037,-81.371
582,3964,Speedway #6604,"I-94, EXIT 66",Mattawan,MI,465,3.489,42.2165,-85.7858
583,3964,Speedway #6604,"I-94, EXIT 66",Mattawan,MI,465,3.499,42.2165,-85.7858
584,3970,Exxon - Pilot #1293,"I-30, EXIT 61",Garland,TX,630,2.84233333,32.91,-96.6304
585,3973,Loves Travel Stop #205,"I-35 & I-44, EXIT 137",Oklahoma City,OK,483,3.319,35.4676,-97.5136
586,3974,Loves Travel Stop #201,I-40 EXIT 41,Elk City,OK,483,3.12566666,35.3862,-99.4301
587,3975,Sunstop #334,"I-10, EXIT 335 & SR-121",Macclenny,FL,75,3.459,30.2809,-82.1253
588,3979,Petro Gary 369,"I-80 & I-94, EXIT 9",Gary,IN,365,3.83066666,41.5905,-87.3473
589,4006,Missile Mart #1,US-167 & SR-7,El Dorado,AR,635,3.499,33.2184,-92.664
590,4008,Baldwin Travel Plaza,"I-94, EXIT 19 & US HWY 63",Baldwin,WI,295,3.503,44.954,-92.3709
591,4025,Bp,"I-85, EXIT 21  & US-178",Anderson,SC,30,2.909,34.5211,-82.6478
592,4035,Pilot Travel Center #430,"I-40,  EXIT 84",Russellville,AR,695,3.375,35.2762,-93.1383
593,4035,Pilot Travel Centers #430,"I-40,  EXIT 84",Russellville,AR,695,3.399,35.2762,-93.1383
594,4062,Dudleys Truck Stop Restaurant,US-220,Rocky Mount,VA,185,3.299,37.0045,-79.8854
595,4063,Stuckey'S,"I-59, EXIT 67 & US-49",Hattiesburg,MS,620,2.999,31.3074,-89.317
596,4080,Shell Dba Pilot Dealer #874,US-41,Miami,FL,176,3.699,25.784,-80.2101
597,4080,Pilot Travel Centers #874,US-41,Miami,FL,176,3.699,25.784,-80.2101
598,4101,E-Z Mart #4411,HIGHWAY 69 & COBBLESTONE DR,Pryor,OK,560,3.099,,
599,4113,Asap General Store #330,US-412/SR-15,Enid,OK,500,3.08233333,36.4063,-97.87
600,4115,Quiktrip #707,"I-85 , EXIT 96",Atlanta,GA,18,3.34066666,33.7628,-84.422
601,4119,Jet Food Store #82,US-441 & CR-13,Douglas,GA,10,3.44066666,31.5065,-82.8544
602,4156,Petro Stopping Center #305,"I-10, EXIT 582",San Antonio,TX,740,3.20733333,29.4632,-98.5238
603,4161,El Cheapo,I-95 & EXIT 76,Midway,GA,195,3.52566666,31.8003,-81.419
604,4164,Circle K #2723897,"I-75, EXIT 138",Thomasville,GA,20,3.23566666,30.8394,-83.9782
605,4169,Ta Kingman Travel Center,"I-40, EXIT 48 & US-93",Kingman,AZ,910,3.899,35.217,-114.0105
606,4171,Petro Serve Usa #11,US-2 & US-71,Bemidji,MN,355,3.499,47.4828,-94.8797
607,4172,Flying J Travel Plaza #639,"I-90, EXIT 2",Post Falls,ID,970,3.76233333,47.7213,-116.9384
608,4179,Circle K #2705352,"I-95/SR-405, EXIT 109 & SR-30/SR-21",Port Wentworth,GA,195,3.099,32.1951,-81.1991
609,4187,Flying J Travel Plaza #632,"I-75, EXIT 320",Resaca,GA,285,3.29566666,34.5789,-84.9439
610,4193,Tiger Mart #63,"I-20, EXIT 454",Grand Prairie,TX,630,3.599,32.6871,-97.0208
611,4199,Pwi #574,"I-70, EXIT 193/US-40",Bunker Hill,KS,357,2.959,38.8753,-98.6989
612,4204,Pilot Travel Centers #415,"I-59, EXIT 4",Rising Fawn,GA,285,3.859,,
613,4204,Pilot Travel Center #415,"I-59, EXIT 4",Rising Fawn,GA,285,3.819,,
614,4211,Flying J #513,"I-15, EXIT 1",Jean,NV,910,3.73233333,,
615,4220,Kennett Truck Stop,"I-275, EXIT 16",Lawrenceburg,IN,300,3.424,39.0986,-84.8713
616,4222,Circle K #4703906,"I-24, EXIT 24 & SR-49",Pleasant View,TN,460,2.899,36.3893,-87.0455
617,4223,Ta Pembroke Travel Center,"I-90, EXIT 48A",Corfu,NY,38,3.939,42.9611,-78.4028
618,4223,Ta Pembroke Travel Center,"I-90, EXIT 48A",Corfu,NY,38,3.889,42.9611,-78.4028
619,4223,Ta Pembroke Travel Center,"I-90, EXIT 48A",Corfu,NY,38,3.829,42.9611,-78.4028
620,4223,Ta Pembroke Travel Center,"I-90, EXIT 48A",Corfu,NY,38,3.839,42.9611,-78.4028
621,4227,Loves Travel Stop #203,"I-40, EXIT 140",Oklahoma City,OK,483,3.35566666,35.4676,-97.5136
622,4233,Quiktrip #7220,"I-20, EXIT 8",Shreveport,LA,745,2.89233333,32.4653,-93.7955
623,4239,Speedway #8256,"I-64, EXIT 94 & SR-1958 & US-60",Winchester,KY,410,2.92233333,38.0018,-84.1908
624,4241,Exxon,"I-285, EXIT 53",Conley,GA,18,3.999,33.6399,-84.3376
625,4267,Conoco,US-30 & SR-41,Gap,PA,160,3.799,39.9888,-76.0212
626,4292,Kum & Go #0032,"I-80/US-6, EXIT 155 & SR-117",Colfax,IA,320,3.08233333,41.6802,-93.2385
627,4301,Tiger Discount Truckstop,"I-94, EXIT 64 & I-94 BUS",Dickinson,ND,807,3.51566666,46.8918,-102.7925
628,4311,Saveway Truck Plaza,"I-65, EXIT 164 & US-31",Hope Hull,AL,720,3.139,,
629,4331,Kwik Stop C Stores,US-61/US-151,Dubuque,IA,335,3.559,42.5002,-90.707
630,4332,Pilot Travel Center #468,"I-57, EXIT 283 & US-24",Gilman,IL,280,3.399,40.7626,-87.9975
631,4332,Pilot Travel Center #468,"I-57, EXIT 283 & US-24",Gilman,IL,280,3.559,40.7626,-87.9975
632,4332,Pilot Travel Center #468,"I-57, EXIT 283 & US-24",Gilman,IL,280,3.439,40.7626,-87.9975
633,4332,Pilot Travel Centers #468,"I-57, EXIT 283 & US-24",Gilman,IL,280,3.459,40.7626,-87.9975
634,4335,Highway 20  Auto Truck Plaza,US-20,Peosta,IA,335,3.489,42.4477,-90.8448
635,4339,Road Ranger #273,I-69E/US-77 & SR-107,Combes,TX,639,3.049,26.2448,-97.7257
636,4349,Road Ranger #144,"I-380, EXIT 68US-20, EXIT 68",Evansdale,IA,565,3.729,42.4635,-92.2766
637,4363,El Cheapo #4,"I-95, EXIT 87",Richmond Hill,GA,195,3.09566666,31.9012,-81.3125
638,4368,Hoods Service Center,"I-44, EXIT 61",Bois D Arc,MO,535,3.074,,
639,4372,Gradys Truckstop,"I-16, EXIT 111",Pulaski,GA,195,3.46566666,32.3904,-81.9565
640,4373,Kum & Go #0043,"I-35, EXIT 43 & SR-207/CRG76",New Virginia,IA,320,3.114,41.1818,-93.7311
641,4389,Taylor Quik-Pik,"I-29, EXIT 75 & US-30",Missouri Valley,IA,486,3.399,41.5592,-95.9028
642,4395,Break Time #3147,"I-55, EXIT 67 & US-62",Sikeston,MO,275,3.499,36.8854,-89.5877
643,4417,Ta Moriarity Travel Center,"I-40, EXIT 194",Moriarty,NM,580,3.21733333,35.0034,-106.0444
644,4419,Caseys #3081,"I-35, EXIT 92 & US-136",Bethany,MO,400,3.06066666,40.2684,-94.0282
645,4427,Caseys #2654,"I-80/US-6, EXIT 93 & CR-P28",Stuart,IA,320,3.099,41.5004,-94.3182
646,4431,Caseys #2653,"US-63 & US-30, EXIT 202",Toledo,IA,320,3.349,41.9902,-92.5803
647,4437,Underwood Truck Stop I 80,"I-80, EXIT 17",Underwood,IA,319,3.00066666,41.3807,-95.6821
648,4441,Pilot Travel Centers #51,"I-81 BAILEYTON RD, EXIT 36",Greeneville,TN,405,3.56233333,36.168,-82.8197
649,4442,Minuteman Food Mart #58,US-74/US-76,Delco,NC,245,3.50733333,34.3188,-78.2267
650,4445,Ta Rogers,"I-94/US-52, EXIT 207 & SR-101",Rogers,MN,448,3.274,45.1865,-93.5783
651,4446,Loves Travel Stop #200,I-40 EXIT 74,Amarillo,TX,585,3.209,35.1984,-101.8316
652,4451,Prairie Junction Truck Stop,"I-29, EXIT 109 & SR-34",Colman,SD,530,3.099,43.9835,-96.8148
653,4452,Caseys #2867,US-63 & US-20,Waterloo,IA,380,3.499,42.4918,-92.3522
654,4458,Kum & Go #1443,"I-80, EXIT 216",Williamsburg,IA,380,3.13066666,41.6683,-92.0103
655,4460,Exit 62 Truckstop,"I-71, EXIT 62 & US-127",Glencoe,KY,415,3.16566666,38.7253,-84.8238
656,4463,Quiktrip #7901,"I-20, EXIT 556 & US-69",Lindale,TX,710,2.80733333,32.4933,-95.4069
657,4482,Flying J Travel Plaza #777,"I-84, EXIT 54(FEDERAL WAY)",Boise,ID,785,3.809,43.6005,-116.2308
658,4482,Flying J Fuel Stop #777,"I-84, EXIT 54(FEDERAL WAY)",Boise,ID,785,3.76566666,43.6005,-116.2308
659,4492,3 Mile Corner Truck Stop,US-2 & US-95,Bonners Ferry,ID,970,3.734,48.6928,-116.3184
660,4525,Stinker #42,US-12/US-95 & SR-128,Lewiston,ID,970,3.69733333,46.3934,-116.9933
661,4528,Wenatchee Valley Truck Stop,US-97 ALT,Wenatchee,WA,920,4.199,47.436,-120.3295
662,4528,Wenatchee Valley Truck Stop,US-97 ALT,Wenatchee,WA,920,4.119,47.436,-120.3295
663,4528,Wenatchee Valley Truck Stop,US-97 ALT,Wenatchee,WA,920,4.089,47.436,-120.3295
664,4533,Speedway #1449,"I-65, EXIT 262B",Birmingham,AL,615,2.97566666,33.5279,-86.7971
665,4544,Big Charlies Truck Plaza,"I-64, EXIT 282 & US-13",Virginia Beach,VA,130,3.489,36.7335,-76.0435
666,4555,Pilot Travel Centers #406,"I-65, EXIT 22 & US-31A/SR-11",Cornersville,TN,460,3.799,35.3634,-86.8584
667,4560,Fast Stop Travel Centers #1109,"I-15, EXIT 392",Plymouth,UT,835,3.58233333,41.8734,-112.1454
668,4563,Pilot Travel Centers #299,"I-55/I-74/US-51, EXIT 160 & US-150/SR-9",Bloomington,IL,280,3.599,40.4757,-88.9703
669,4563,Pilot Travel Centers #299,"I-55/I-74/US-51, EXIT 160 & US-150/SR-9",Bloomington,IL,280,3.399,40.4757,-88.9703
670,4563,Pilot Travel Center #299,"I-55/I-74/US-51, EXIT 160 & US-150/SR-9",Bloomington,IL,280,3.399,40.4757,-88.9703
671,4563,Pilot Travel Centers #299,"I-55/I-74/US-51, EXIT 160 & US-150/SR-9",Bloomington,IL,280,3.499,40.4757,-88.9703
672,4563,Pilot Travel Center #299,"I-55/I-74/US-51, EXIT 160 & US-150/SR-9",Bloomington,IL,280,3.499,40.4757,-88.9703
673,4563,Pilot Travel Center #299,"I-55/I-74/US-51, EXIT 160 & US-150/SR-9",Bloomington,IL,280,3.599,40.4757,-88.9703
674,4568,Onvo Travel Plaza,"I-90, EXIT 28",Fultonville,NY,12,3.199,42.9463,-74.3704
675,4568,Onvo Travel Plaza,"I-90, EXIT 28",Fultonville,NY,12,3.159,42.9463,-74.3704
676,4569,Metropolis Truck Stop,"I-24, EXIT 37 & US-45",Metropolis,IL,490,3.599,37.1565,-88.7082
677,4574,Circle K #4701432,"I-74, EXIT 174",Mahomet,IL,280,3.669,40.1888,-88.3901
678,4582,Big Chief Truck Stop,"I-94/US-52, EXIT 61 & US-59/CR-82",Fergus Falls,MN,250,3.23566666,46.2854,-96.0758
679,4605,Pilot Dealer #898 Sadlers Truck Stop,"I-95, EXIT 11B & US-58",Emporia,VA,180,3.799,36.6953,-77.5356
680,4618,Outpost Travel Center,"I-20, EXIT 5 & US-80",Greenwood,LA,745,2.899,32.4359,-93.9643
681,4620,Pilot Travel Centers #95,"I-75, EXIT 329 & SR-44",Wildwood,FL,225,3.22566666,28.7752,-82.0075
682,4620,Pilot Travel Center #95,"I-75, EXIT 329 & SR-44",Wildwood,FL,225,3.319,28.7752,-82.0075
683,4622,Ta Lee Hi Travel Plaza,"I-81,  EXIT 195",Lexington,VA,185,3.659,37.7825,-79.4441
684,4628,Quarles #4601,US-29/US-17/US-15,Warrenton,VA,60,3.32233333,38.7176,-77.7976
685,4637,Thorntons #369 Dba Pilot Travel Center #514,"I-55, EXIT 126 & SR-10",Lincoln,IL,318,3.399,40.1508,-89.372
686,4637,Thorntons #369 Dba Pilot Travel Center #514,"I-55, EXIT 126 & SR-10",Lincoln,IL,318,3.499,40.1508,-89.372
687,4637,Pilot Travel Center #514 - Thorntons #369,"I-55, EXIT 126 & SR-10",Lincoln,IL,318,3.499,40.1508,-89.372
688,4637,Pilot Travel Center #514 - Thorntons #369,"I-55, EXIT 126 & SR-10",Lincoln,IL,318,3.399,40.1508,-89.372
689,4642,Marshal Junction,"I-70, EXIT 147 & SR-1",Marshall,IL,510,3.199,39.3986,-87.69
690,4642,Marshal Junction,"I-70, EXIT 147 & SR-1",Marshall,IL,510,3.399,39.3986,-87.69
691,4644,Circle K #4706703,"I-80, EXIT 145A",Mokena,IL,290,3.399,41.5327,-87.8781
692,4644,Circle K #4706703,"I-80, EXIT 145A",Mokena,IL,290,3.339,41.5327,-87.8781
693,4654,7-Eleven #35087,"I-490, EXIT 2 & SR-33 & SR-19",Bergen,NY,190,4.029,,
694,4655,Quicklees Travel Center,"I-86, EXIT 30 & CR-20",Belmont,NY,190,3.999,42.2226,-78.0327
695,4690,Pwi #401,"I-20 & I-30, EXIT 1B",Aledo,TX,630,2.799,32.6974,-97.6069
696,4700,A C Truckstop,"I-80, EXIT 290",Laramie,WY,795,3.079,41.3099,-105.6085
697,4704,The Ridge,"I-68/US-219, EXIT 14 & US-40",Accident,MD,165,4.199,39.6257,-79.32
698,4707,Smithton Truckstop,"I-70, EXIT 39 & SR-3059",Smithton,PA,165,3.899,40.1538,-79.7424
699,4729,Minit Mart #600244,"I-70, EXIT 131",Straughn,IN,457,3.859,39.8082,-85.2909
700,4742,Flying J Travel Plaza #684,"I-94, EXIT 1 & SR-16",Beach,ND,807,3.96566666,46.9189,-104.0055
701,4750,Brooke Travel Plaza,"I-80, EXIT 259",West Liberty,IA,380,2.98733333,41.5727,-91.2623
702,4762,Ta Monroe Travel Center,"I-75, EXIT 15",Monroe,MI,325,3.349,41.9155,-83.3849
703,4762,Ta Monroe Travel Center,"I-75, EXIT 15",Monroe,MI,325,3.249,41.9155,-83.3849
704,4762,Ta Monroe Travel Center,"I-75, EXIT 15",Monroe,MI,325,3.369,41.9155,-83.3849
705,4762,Ta Monroe Travel Center,"I-75, EXIT 15",Monroe,MI,325,3.299,41.9155,-83.3849
706,4806,Track And Travel,"I-20, EXIT 406",Weatherford,TX,630,2.91733333,32.7536,-97.7723
707,4818,Pilot Travel Center #350,"I-84 & US-20, EXIT 95",Mountain Home,ID,785,3.799,43.1324,-115.697
708,4818,Pilot Travel Centers #350,"I-84 & US-20, EXIT 95",Mountain Home,ID,785,3.759,43.1324,-115.697
709,4819,Alta Convenience #6333,"I-25, EXIT 11",Trinidad,CO,803,3.399,37.1751,-104.4908
710,4826,I-20 Truck Stop,"I-20, EXIT 165",Lincoln,AL,615,2.999,33.5935,-86.1365
711,4827,Petro Beaumont #304,"I-10, EXIT 848",Beaumont,TX,610,3.33066666,30.0849,-94.1451
712,4837,Shell,US-10 & SR-210,Motley,MN,522,3.399,46.3349,-94.6423
713,4856,Pilot Travel Center #910- Town Pump,"I-90, EXIT 274 & US-287",Three Forks,MT,786,3.59733333,45.8899,-111.5525
714,4858,Pilot Travel Center #1346,"I-135, EXIT 31",Newton,KS,570,3.3115,38.0368,-97.3449
715,4858,Pilot Dealer #1346,"I-135, EXIT 31",Newton,KS,570,3.409,38.0368,-97.3449
716,4860,Pilot Travel Center #476,"I-74, EXIT 32 & SR-17",Woodhull,IL,270,3.899,41.1784,-90.3221
717,4860,Pilot Travel Centers #476,"I-74, EXIT 32 & SR-17",Woodhull,IL,270,3.899,41.1784,-90.3221
718,4872,Ta Commerce Travel Center,"I-85, EXIT 149 & US-441",Commerce,GA,16,3.21566666,34.2134,-83.4733
719,4874,Pwi #110,"I-20, EXIT 112 & FM-1936",Odessa,TX,710,3.049,31.8801,-102.3448
720,4878,Shell Dba One9 #1426,"I-84, EXIT 35",Nampa,ID,785,3.374,43.5844,-116.5638
721,4881,Petro Stopping Center #14,"I-295, EXIT 56",Bordentown,NJ,230,4.029,,
722,4885,Loves Travel Stop #384,"I-70, EXIT 45",Greenville,IL,540,3.689,38.8867,-89.3894
723,4885,Loves Travel Stop #384,"I-70, EXIT 45",Greenville,IL,540,3.749,38.8867,-89.3894
724,4887,Sunoco,"I-80 & I-90, EXIT 3",Wauseon,OH,550,3.699,41.5532,-84.141
725,4894,Cloverdale Travel Plaza,"I-70, EXIT 41 & US-231",Cloverdale,IN,375,3.699,39.5211,-86.7995
726,4905,Hy-Miler #2204,SR-250,Sandusky,OH,550,3.53233333,41.4468,-82.7024
727,4909,Circle K #2723916,US-441/US-301/US/27/SR-500,Ocala,FL,140,3.459,29.178,-82.1511
728,4910,Pilot Travel Center #892,"I-70 EXIT 164, & US-50",Green River,UT,835,3.68566666,38.9935,-110.1723
729,4918,Pilot Travel Centers #219,"I-40, EXIT 398",Knoxville,TN,405,3.699,35.9692,-83.9496
730,4920,Ta Laplace,"I-10, EXIT 209 & US-5",La Place,LA,600,3.22733333,,
731,4921,Pilot Travel Centers #231,"I-75, EXIT 29",Corbin,KY,410,3.609,36.9323,-84.1006
732,4927,Circle K #2704886,"I-65, EXIT 205 & US-31/SR-22",Clanton,AL,720,3.20733333,32.8444,-86.6233
733,4933,Village Truck Stop,"I-81, EXIT 18",Rural Retreat,VA,185,3.299,36.901,-81.2765
734,4977,Kwik Trip #331,SR-54,Wisconsin Rapids,WI,395,3.26233333,44.3927,-89.8265
735,4981,Johnnys Market,"I-94, EXIT 110 & US-27",Marshall,MI,385,3.499,42.2618,-84.9598
736,4983,Kwik Trip #603,"I-94, EXIT 28 & SR-128",Wilson,WI,451,3.549,44.9586,-92.1705
737,4996,Zip Trip #54,"I-90, EXIT 452",Billings,MT,780,3.59066666,45.7891,-108.5526
738,5003,Trailway Truck Stop,US-301/SR-304,Centreville,MD,22,3.259,39.042,-76.063
739,5006,Sunoco,US-1/US-9,Linden,NJ,79,3.799,40.6251,-74.2383
740,5024,I 55 Motor Plaza,"I-55,  EXIT 180",Pevely,MO,540,2.99066666,38.2867,-90.3988
741,5030,Yesway #1030,US-63 & E MARY ST,Ottumwa,IA,320,3.399,41.0195,-92.4186
742,5044,Ta Mount Vernon Travel Center,"I-44, EXIT 46 & SR-39/SR265",Mount Vernon,MO,535,3.409,37.105,-93.819
743,5050,Rock Port Truck Plaza,"I-29 & US-136, EXIT 110",Rock Port,MO,400,3.099,40.4109,-95.5332
744,5056,Trex Mart #16,"I-35, EXIT, 61 & US-69",Winston,MO,276,3.119,39.8699,-94.1416
745,5057,Phillips 66,"I-35, EXIT 54 & I-35 BUS/US-36",Cameron,MO,276,3.099,39.7444,-94.2329
746,5060,Crazy Freds Truck Shop,"I-40, EXIT 44 & US-66",Kingman,AZ,910,3.539,35.217,-114.0105
747,5064,Clark Oil #44,"I-59, EXIT 97",Laurel,MS,620,2.879,31.6956,-89.1449
748,5079,Fastlane Taylor 63,US-61 & SR-6,Taylor,MO,494,3.01566666,,
749,5085,K An T Truckstop,"I-79, EXIT 137 & SR-310",Fairmont,WV,165,3.399,39.4768,-80.1491
750,5111,Circle K #2723385,"I-59, EXIT 67 & US-49/SR-42",Hattiesburg,MS,620,3.149,31.3074,-89.317
751,5117,Circle K #4702361,"I-65, EXIT 130 & SR-334",Whitestown,IN,375,3.29233333,39.9706,-86.3612
752,5128,Caseys #2769,"I-80, EXIT 220 & SR-149",Williamsburg,IA,380,3.14233333,41.6683,-92.0103
753,5131,Trails End Truck Stop,"I-29, EXIT 110 & US-136",Rock Port,MO,486,3.40566666,40.4109,-95.5332
754,5132,Travel Centers Of America,"I-44, EXIT 208 & SR-19",Cuba,MO,574,3.26566666,38.0671,-91.4057
755,5160,Fuel Mart #727,"I-70, EXIT 193",Quaker City,OH,249,3.16566666,39.9697,-81.2973
756,5163,Blue Sky #733,"US-78, EXIT 81 & SR-178",Belden,MS,742,2.939,,
757,5165,One9 #046,"I-65, EXIT 6 & SR-100",Franklin,KY,415,3.08566666,36.7177,-86.5595
758,5167,Speedway #7575,"I-65, EXIT 255",Hobart,IN,290,3.63233333,41.514,-87.2729
759,5170,Flying J #516,"I-76, EXIT 161 & I-70",Breezewood,PA,14,5.099,,
760,5183,Petro Stopping Center #74,I-95 & EXIT 106,Kenly,NC,205,3.709,35.5885,-78.137
761,5191,North Point Plaza,"I-90 & I-94, EXIT 115",Poynette,WI,420,3.17233333,43.3922,-89.4059
762,5202,Chevron #306185,US-30,Montpelier,ID,825,3.699,42.326,-111.2988
763,5203,Oasis Travel Center,"I-10, EXIT 53",Robertsdale,AL,715,3.469,30.5535,-87.7023
764,5207,Jj Travel Plaza,"I-70, EXIT 70 & US-83",Oakley,KS,525,3.61566666,39.1233,-100.8449
765,5227,Pilot Travel Centers #900,"I-95, EXIT 75",Dunn,NC,205,3.709,35.3114,-78.6129
766,5230,One9 #496,"I-80, EXIT 265",Atalissa,IA,270,3.01566666,41.5715,-91.1664
767,5232,Cm Eunice,US-190,Eunice,LA,730,3.399,30.4904,-92.4191
768,5234,Sinclair,SR-37,Monett,MO,277,3.29066666,36.9218,-93.9278
769,5236,Flying J #875,"I-95,  EXIT 109",Elkton,MD,243,4.199,39.6066,-75.8209
770,5245,Caseys #3842,US-36 & US-283,Norton,KS,357,3.15733333,39.8362,-99.8916
771,5247,Edgerton Travel Plaza,"I-90, EXIT 160 & US-51",Edgerton,WI,420,3.199,42.8385,-89.0699
772,5249,Taylor'S Stateline Travel Center,US-67 & SR-278,Neelyville,MO,275,2.999,36.5562,-90.5139
773,5254,Ta Candler Travel Center,"I-40, EXIT 37",Candler,NC,210,3.799,,
774,5255,7-Eleven #35788,"I-35, EXIT 215",Olathe,KS,400,3.339,38.8833,-94.82
775,5258,Pt Truck Stop,"I-12, EXIT 42",Hammond,LA,623,3.249,30.5061,-90.4563
776,5282,Caseys #3548,US-54 & US-61,Pratt,KS,357,3.14066666,37.6765,-98.7451
777,5285,Tullo Truck Stop,"I-95, EXIT 15E & US-1/US-9",Kearny,NJ,79,3.799,40.7528,-74.1202
778,5297,Ernies Truck Stop,"I-90,  EXIT 179 & I-90 BUS/SR-17",Moses Lake,WA,920,3.999,47.1279,-119.2759
779,5297,Ernies Truck Stop,"I-90,  EXIT 179 & I-90 BUS/SR-17",Moses Lake,WA,920,3.949,47.1279,-119.2759
780,5297,Ernies Truck Stop,"I-90,  EXIT 179 & I-90 BUS/SR-17",Moses Lake,WA,920,4.179,47.1279,-119.2759
781,5299,Sudden Service #62,"I-65, EXIT 6 & SR-100",Franklin,KY,460,3.084,36.7177,-86.5595
782,5302,One9 #258,"I-81, EXIT 150 & US-220 ALT & US-11",Troutville,VA,185,3.03233333,37.4168,-79.8779
783,5306,Pilot Travel Centers #11,"I-76, EXIT 232",North Lima,OH,573,3.799,40.9497,-80.6611
784,5309,Newborn Truck Stop,I-20 EXIT 5,Tallapoosa,GA,48,3.40733333,33.7335,-85.2859
785,5310,Flying J #576,"I-35, EXIT 69",Northfield,MN,515,3.859,44.455,-93.1698
786,5324,Hy-Miler #2245,SR-53,Fremont,OH,550,3.38233333,41.3535,-83.1147
787,5341,Kwik Star #1160,"US-75, EXIT 118 & SR-3",Le Mars,IA,408,3.299,42.781,-96.1733
788,5349,Jet Food Store #17,US-1/SR=4/SR-540 & US-220/SR-47,Wrens,GA,135,3.41566666,33.207,-82.3878
789,5363,Speedway #6767,"I-75, EXIT 20",Manheim,PA,70,4.499,40.163,-76.3964
790,5389,Flying J Travel Plaza #744,"I-15, EXIT 343",Ogden,UT,835,3.749,41.2279,-111.9682
791,5391,Pwi #605,"I-10, EXIT 378",San Simon,AZ,640,2.959,32.2682,-109.2302
792,5399,Flying J Travel Plaza #750,"I-81 & I-77, EXIT 80",Max Meadows,VA,185,3.549,36.9798,-80.9678
793,5407,Caseys #4535,US 81,Concordia,KS,570,2.91233333,39.5669,-97.6467
794,5414,One9 #1216,"I-10 ,EXIT 200 & SR-84",Eloy,AZ,930,3.199,32.747,-111.5992
795,5414,Pride Travel Center Dba One9 #1216,"I-10 ,EXIT 200 & SR-84",Eloy,AZ,930,3.199,32.747,-111.5992
796,5419,Usa Travel Center,"I-40, EXIT 48 & US-93",Kingman,AZ,910,3.399,35.217,-114.0105
797,5422,K And H Truck Plaza,"I-57, EXIT 283 & US-24",Gilman,IL,290,3.159,40.7626,-87.9975
798,5422,K And H Truck Plaza,"I-57, EXIT 283 & US-24",Gilman,IL,290,3.099,40.7626,-87.9975
799,5424,Wk Truck Stop,"US-231 & SR-9001, EXIT 75",Beaver Dam,KY,340,3.399,37.4042,-86.8741
800,5435,Meade Auto And Truck Plaza,US-54,Meade,KS,525,3.799,37.2836,-100.343
801,5436,Parkway Marathon,"US-79, EXIT 94",Caneyville,KY,415,3.73233333,37.4241,-86.4906
802,5446,Petro Stopping Center #308,"I-20, EXIT 8 & SR-526",Shreveport,LA,745,3.17566666,32.4653,-93.7955
803,5462,Boozer Kwik Stop,"I-15, EXIT 118",Idaho Falls,ID,825,3.44733333,43.4871,-112.0362
804,5464,Pilot Travel Centers #48,"I-65, EXIT 86",Glendale,KY,415,3.609,,
805,5474,One9 #88,"I-95/SR-9, EXIT 201 & SR-520",Cocoa,FL,143,3.37566666,28.382,-80.7675
806,5477,Chevron #383766,"I-5, EXIT 216",Halsey,OR,935,3.099,44.3827,-123.111
807,5479,Pilot Travel Centers #94,"I-75, EXIT 161",Punta Gorda,FL,225,3.799,26.8941,-82.0513
808,5479,Pilot Travel Center #94,"I-75, EXIT 161",Punta Gorda,FL,225,3.799,26.8941,-82.0513
809,5491,49Er Fuel Center,"I-75, EXIT 49",East Bernstadt,KY,410,2.999,37.1923,-84.1209
810,5492,Bfs Foods #68,"I-70, EXIT 3",Hancock,MD,22,4.129,39.7054,-78.1749
811,5522,One9 #301,"I-55,  EXIT 40",Marston,MO,275,3.109,36.5177,-89.6063
812,5523,Ta Limon Travel Center,"I-70, EXIT 359 & US-24",Limon,CO,800,3.92066666,39.2653,-103.6857
813,5529,Flying J #549,"I-77, EXIT 100 & 101",Mount Airy,NC,65,3.599,36.5083,-80.6155
814,5537,Hucks Travel Center #51 Dba Flying J #889,"I-57/I-64, EXIT 95 & SR-15",Mount Vernon,IL,574,3.459,38.314,-88.9174
815,5537,Hucks Travel Center #51 Dba Flying J #889,"I-57/I-64, EXIT 95 & SR-15",Mount Vernon,IL,574,3.499,38.314,-88.9174
816,5537,Hucks Travel Center #51 Dba Flying J #889,"I-57/I-64, EXIT 95 & SR-15",Mount Vernon,IL,574,3.359,38.314,-88.9174
817,5537,Hucks Travel Center #51 Dba Flying J #889,"I-57/I-64, EXIT 95 & SR-15",Mount Vernon,IL,574,3.599,38.314,-88.9174
818,5537,Hucks Travel Center #51 Dba Flying J #889,"I-57/I-64, EXIT 95 & SR-15",Mount Vernon,IL,574,3.399,38.314,-88.9174
819,5554,Southfork Truck Stop,"I-30, EXIT 63 & SR-53",Gurdon,AR,635,3.459,33.9154,-93.1545
820,5560,Midway Travel Plaza,I-70 EXIT 121 & US-40,Columbia,MO,310,3.539,38.9472,-92.3268
821,5569,Ta Express Norwood #0450,US-60,Norwood,MO,535,3.449,37.1072,-92.4189
822,5570,Petro Stopping Center #310,"I-12, EXIT 40 & US-51 BUS",Hammond,LA,725,3.249,30.5061,-90.4563
823,5579,Sapp Bros Travel Center,US-30,Columbus,NE,486,3.219,41.4366,-97.3565
824,5592,Ta Columbia North,"I-20, EXIT 71 & US-21",Columbia,SC,46,3.439,34.0378,-80.9036
825,5597,Cm Lake Charles Fuel Stop 36,"I-10, EXIT 36 & SR-397",Lake Charles,LA,690,3.299,30.201,-93.2111
826,5601,Bp,"I-24, EXIT 16",Paducah,KY,490,3.429,37.0711,-88.644
827,5603,Ta North Canton Travel Center,"I-77, EXIT 111",North Canton,OH,249,3.624,40.8742,-81.3971
828,5606,Flying J #511,"I-94, EXIT 147",Mandan,ND,273,3.95233333,46.829,-100.887
829,5607,Rice Mart,"I-45 & FM 1603, EXIT 238",Rice,TX,630,3.019,32.2389,-96.4978
830,5608,Shop A Lott  #3,US-84 & US-171,Mansfield,LA,766,3.13566666,32.0355,-93.7004
831,5613,Chevron #381108,"I-82, EXIT 36",Yakima,WA,925,3.999,46.5923,-120.5496
832,5618,Mcclure Oil #52,"I-65/US-52, EXIT 140 & SR-32",Lebanon,IN,375,3.584,40.0324,-86.4551
833,5649,Fast Stop,"I-10, EXIT 182 & SR-22",Sorrento,LA,623,3.699,30.1828,-90.8674
834,5651,Loves Travel Stop #303,"I-64, EXIT 43 & SR-395",Waddy,KY,415,3.749,,
835,5659,Tex-Best #526,US-59 & US-281,George West,TX,625,3.299,28.33,-98.1183
836,5660,Pride Convenience Store,"I-90, EXIT 51 & I-291",Chicopee,MA,100,3.509,42.1764,-72.5719
837,5661,Ta Express #287,"I-40, EXIT 288 & SR-111",Cookeville,TN,460,3.299,36.1482,-85.5109
838,5667,Pilot Travel Centers #393,"I-40, EXIT 24 & SR-209",Waynesville,NC,210,3.759,35.4854,-82.9996
839,5669,Kwik Trip #497,I-90 EXIT 266 & CR-12,Dakota,MN,515,3.474,43.9106,-91.3605
840,5670,Ta Mount Vernon Travel Center,"I-57 & I-64, EXIT 95",Mount Vernon,IL,574,3.449,38.314,-88.9174
841,5670,Ta Mount Vernon Travel Center,"I-57 & I-64, EXIT 95",Mount Vernon,IL,574,3.499,38.314,-88.9174
842,5670,Ta Mount Vernon Travel Center,"I-57 & I-64, EXIT 95",Mount Vernon,IL,574,3.539,38.314,-88.9174
843,5674,Ta Madison Travel Center,"I-20, EXIT 114 & US-441",Madison,GA,16,3.89066666,33.5793,-83.4758
844,5677,Yesway #1178,CR-13,Kadoka,SD,506,3.189,43.8325,-101.5081
845,5691,Pilot Travel Center #666,"I-94, EXIT 30",Benton Harbor,MI,465,3.059,42.1159,-86.4488
846,5700,Beacon & Bridge #18,US-131 BUS,Big Rapids,MI,456,3.559,43.6992,-85.4806
847,5700,Beacon & Bridge #18,US-131 BUS,Big Rapids,MI,456,3.319,43.6992,-85.4806
848,5700,Beacon & Bridge #18,US-131 BUS,Big Rapids,MI,456,3.339,43.6992,-85.4806
849,5718,Toot N Totum #104,US-287,Dalhart,TX,585,3.199,36.058,-102.5123
850,5721,Ta Baltimore South Travel Center,"I-95, EXIT 41A & SR-175 & US-1",Jessup,MD,22,4.599,39.1488,-76.7772
851,5729,Menomonie Farmers Union,"I-94, EXIT 45 & CR-B",Menomonie,WI,295,3.649,44.8893,-91.9084
852,5730,Scotts Quick Stop,SR-53 & SR-46,Marlette,MI,342,3.399,43.3268,-83.0806
853,5739,Pilot Travel Centers #284,"I-75, EXIT 18",Monroe,MI,325,3.399,41.9155,-83.3849
854,5739,Pilot Travel Centers #284,"I-75, EXIT 18",Monroe,MI,325,3.299,41.9155,-83.3849
855,5739,Pilot Travel Centers #284,"I-75, EXIT 18",Monroe,MI,325,3.559,41.9155,-83.3849
856,5739,Pilot Travel Centers #284,"I-75, EXIT 18",Monroe,MI,325,3.249,41.9155,-83.3849
857,5739,Pilot Travel Centers #284,"I-75, EXIT 18",Monroe,MI,325,3.439,41.9155,-83.3849
858,5751,Ta Lake Park Travel Center,"I-75,  EXIT 2",Lake Park,GA,20,3.31566666,30.6851,-83.1873
859,5754,Road Trip Oasis Perry,"I-69, EXIT 105 & SR-52",Perry,MI,406,3.799,42.8195,-84.232
860,5754,Road Trip Oasis Perry,"I-69, EXIT 105 & SR-52",Perry,MI,406,3.699,42.8195,-84.232
861,5758,Speedy Q Market #8206,"I-94, EXIT 274",Port Huron,MI,325,3.899,42.9821,-82.4388
862,5770,Kwik Trip # 1281,"I-43, EXIT 107",Belgium,WI,444,3.25566666,43.5018,-87.8476
863,5771,Dunes Auto Truck Plaza,"I-94, EXIT 12",Sawyer,MI,465,3.499,,
864,5771,Dunes Auto Truck Plaza,"I-94, EXIT 12",Sawyer,MI,465,3.599,,
865,5774,Pj Travel Plaza,"I-80, EXIT 192 & SR-880",Loganton,PA,138,3.479,41.0338,-77.3023
866,5780,Bills Truckstop,"I-85, EXIT 86",Linwood,NC,65,3.449,,
867,5799,Staples Oil,"I-90, EXIT 146",Alden,MN,425,3.299,43.6695,-93.5735
868,5801,Ta Wytheville Travel Center,"I-81, EXIT 72 & I-77, EXIT 41",Wytheville,VA,185,3.519,36.953,-81.0881
869,5821,Ta Portland Travel Center,"I-5,  EXIT 278",Aurora,OR,935,4.03233333,45.2284,-122.7573
870,5823,Enmarket #863,"I-95, EXIT 8 & SR-88",Hardeeville,SC,195,3.08233333,32.2949,-81.0321
871,5830,115 Truckstop #5001,"I-94, EXIT 115",Marshall,MI,431,3.429,42.2618,-84.9598
872,5830,115 Truckstop #5001,"I-94, EXIT 115",Marshall,MI,431,3.499,42.2618,-84.9598
873,5830,115 Truckstop #5001,"I-94, EXIT 115",Marshall,MI,431,3.589,42.2618,-84.9598
874,5842,Petro Stopping Center #6367,"I-57,  EXIT 335",Monee,IL,290,3.459,41.4181,-87.7502
875,5842,Petro Stopping Center #6367,"I-57,  EXIT 335",Monee,IL,290,3.499,41.4181,-87.7502
876,5842,Petro Stopping Center #6367,"I-57,  EXIT 335",Monee,IL,290,3.399,41.4181,-87.7502
877,5860,Speedway #4610,"I-35, EXIT 59 & SR-21",Faribault,MN,448,3.759,44.2996,-93.2789
878,5873,Southern Valley Coop,ST 14 BYPASS,Mankato,MN,425,3.499,44.1715,-93.9772
879,5901,Rothsay Truck Stop,"I-94, EXIT 38",Rothsay,MN,341,3.209,46.4731,-96.2842
880,5903,Circle K #2746447,I-94/US-52 EXIT 127 & US-71/SR-28,Sauk Centre,MN,250,3.189,45.736,-94.9523
881,5907,Speedway #4035,CR-101,Shakopee,MN,448,3.599,44.7745,-93.4772
882,5909,Sinclair,"I-90, EXIT 233",Saint Charles,MN,515,3.529,,
883,5927,Harrisonburg Travel Center,"I-81,  EXIT 243 & US-11",Harrisonburg,VA,185,2.899,38.4362,-78.8735
884,5935,Westhampton Valero,I-295 EXIT 47A,Mount Holly,NJ,160,3.329,,
885,5942,Express Mart Truck Stop,"I-55, EXIT 185 & US-67/US-61",Barnhart,MO,540,2.99733333,38.336,-90.4046
886,5944,Lake Mills Travel Plaza,"I-94, EXIT 259 & SR- 89/CR-G",Lake Mills,WI,420,3.36066666,43.0775,-88.9055
887,5946,Pilot Travel Centers #918,I-90 EXIT 55,Rapid City,SD,506,3.999,44.0716,-103.2204
888,5949,Exxon,US-59 & LOOP 151,Texarkana,TX,723,3.16566666,33.45,-94.0847
889,5951,Road Ranger #157,I-64 EXIT 41,Okawville,IL,540,3.799,38.4344,-89.548
890,5963,Ozona One Stop,"I-10, EXIT 372",Ozona,TX,710,2.98233333,30.7074,-101.206
891,5965,Truck Towne,I-29 EXIT 47 & SR-46,Beresford,SD,572,3.159,43.0797,-96.7803
892,5971,Waco Travel Center,SR-19,Perry,FL,20,3.699,30.109,-83.5821
893,5979,Ta Lafayette Travel Center,"I-10 & SR-182, EXIT 101",Lafayette,LA,600,3.134,30.2082,-92.0325
894,5980,Thrift Mart Truck Plaza,"I-85/US-460, EXIT 63A & US-1/US-460 BUS",Petersburg,VA,180,3.199,37.2043,-77.3913
895,5990,360 Truck Stop,US-360,Amelia Court House,VA,180,3.599,37.3367,-77.9882
896,5996,Fast Stop Travel Centers #1134,"I-80/US-30, EXIT 99 & US-191/SR-373",Rock Springs,WY,827,3.499,41.5947,-109.2209
897,5999,Pilot Travel Stop #492,"I-30, EXIT 78 & SR-7",Arkadelphia,AR,635,3.559,34.1253,-93.0729
898,5999,Pilot Travel Center #492,"I-30, EXIT 78 & SR-7",Arkadelphia,AR,635,3.499,34.1253,-93.0729
899,6001,Allsups #2392,US-70 & US-285,Roswell,NM,700,3.199,33.373,-104.5294
900,6009,Caseys #2652,US-65 & US-36,Chillicothe,MO,400,3.289,39.7953,-93.5499
901,6010,Segovia Truck Stop,"I-10, EXIT 465",Junction,TX,739,2.999,30.4906,-99.7726
902,6018,Ta Bloomington Travel Center,"I-55, I-74 & I-39 , EXIT 160",Bloomington,IL,280,3.619,40.4757,-88.9703
903,6018,Ta Bloomington Travel Center,"I-55, I-74 & I-39 , EXIT 160",Bloomington,IL,280,3.649,40.4757,-88.9703
904,6018,Ta Bloomington Travel Center,"I-55, I-74 & I-39 , EXIT 160",Bloomington,IL,280,3.599,40.4757,-88.9703
905,6018,Ta Bloomington Travel Center,"I-55, I-74 & I-39 , EXIT 160",Bloomington,IL,280,3.449,40.4757,-88.9703
906,6018,Ta Bloomington Travel Center,"I-55, I-74 & I-39 , EXIT 160",Bloomington,IL,280,3.539,40.4757,-88.9703
907,6033,Emery'S,US-54,Deerfield,MO,277,3.349,37.8386,-94.5078
908,6037,Crystal Oil,"I-129/US-20/US-75,  EXIT 2",South Sioux City,NE,527,3.549,42.4627,-96.4125
909,6041,Cockerham Fuel Center #4,"I-77, EXIT 14 & US-58/US-221",Hillsville,VA,185,3.28233333,36.7613,-80.7371
910,6047,Fast Lane #26,US-61,Eolia,MO,494,3.099,39.2388,-91.012
911,6051,Circle K #2709846,"I-25, EXIT 240",Longmont,CO,800,3.05733333,40.1686,-105.1005
912,6057,Pilot Travel Center #903,"I-70/US-40, EXIT 252",Salina,KS,523,3.759,38.8136,-97.6143
913,6057,Pilot Travel Centers #903,"I-70/US-40, EXIT 252",Salina,KS,523,3.779,38.8136,-97.6143
914,6058,Motor Inn Auto Truck Stop,I-75 EXIT 110,Mendon,OH,370,3.199,40.6733,-84.5174
915,6068,Ayerco #24,US-61 & CR MM,Hannibal,MO,494,3.099,39.7098,-91.3939
916,6082,Palmetto Truck Plaza,US-27/SR-25 & SR-826,Hialeah,FL,95,3.399,25.8696,-80.3045
917,6083,Bp,"I-35, EXIT 33",Holt,MO,400,3.049,39.4552,-94.3371
918,6087,Break Time #3173,US-54 & CR-HH,Fulton,MO,310,3.299,38.8551,-91.951
919,6093,One9 #901,"I-80 & US-183, EXIT 257",Elm Creek,NE,330,2.96566666,40.7201,-99.3755
920,6096,Waverly Travel Center,US-23,Waverly,OH,315,3.41566666,39.1256,-82.9836
921,6097,Sapp Bros Travel Center,"I-80, EXIT 263",Elm Creek,NE,330,3.18733333,40.7201,-99.3755
922,6106,Ta Huntington,"I-84, EXIT 353",Huntington,OR,982,3.639,44.3501,-117.2668
923,6111,Hawgs Exxon,US-167/SR-25,Batesville,AR,418,3.359,35.7687,-91.6227
924,6150,Circle K #2723707,"I-81,  EXIT 150",Troutville,VA,65,3.06566666,37.4168,-79.8779
925,6154,Ta Mobile Travel Center,"I-10,  EXIT 4",Grand Bay,AL,715,3.13566666,30.4717,-88.345
926,6164,Pilot Travel Center #268,"I-80/US-6, EXIT 284",Walcott,IA,270,3.859,41.5989,-90.7744
927,6164,Pilot Travel Centers #268,"I-80/US-6, EXIT 284",Walcott,IA,270,3.88566666,41.5989,-90.7744
928,6165,Temp Stop #117,I-70 & GRAIN VALLEY RD EXIT 24,Grain Valley,MO,400,2.959,39.0171,-94.2084
929,6167,Pilot Travel Centers #167,US-71,Nevada,MO,277,3.49566666,37.8445,-94.3492
930,6172,Speedway #2319,"I-96, EXIT 77",Portland,MI,431,3.699,42.8697,-84.8991
931,6172,Speedway #2319,"I-96, EXIT 77",Portland,MI,431,3.549,42.8697,-84.8991
932,6173,Pilot Travel Centers #21,"I-94, EXIT 167",Dexter,MI,325,3.659,42.3319,-83.8803
933,6173,Pilot Travel Centers #21,"I-94, EXIT 167",Dexter,MI,325,3.599,42.3319,-83.8803
934,6173,Pilot Travel Centers #21,"I-94, EXIT 167",Dexter,MI,325,3.579,42.3319,-83.8803
935,6173,Pilot Travel Centers #21,"I-94, EXIT 167",Dexter,MI,325,3.649,42.3319,-83.8803
936,6175,Onvo Travel Plaza - Mifflintown,US-322/US-22 & SR-35,Mifflintown,PA,138,3.479,40.5713,-77.3951
937,6179,Henderson Travel Plaza,"I-10, EXIT 115 & SR-347",Breaux Bridge,LA,690,3.38566666,30.2829,-91.9043
938,6180,Circle #4703923,"I-24, EXIT 180B & US-27",Chattanooga,TN,285,2.78566666,35.066,-85.2481
939,6182,Exxon,"I-20, EXIT 205 & SR-46",Heflin,AL,587,3.01566666,33.647,-85.5698
940,6188,Signal Food Store #112,US-65 & SR-J,Ozark,MO,535,2.999,37.0365,-93.2158
941,6198,Davis Travel Center #102,"I-95/US-301, EXIT 33 & SR-602",Stony Creek,VA,180,3.06566666,36.948,-77.4001
942,6200,Kwik Fill #388,"I-80, EXIT 29 & SR-8",Harrisville,PA,165,3.404,41.1365,-80.0105
943,6206,Petro Portage,"I-90 & I-94, EXIT 108-A",Portage,WI,420,3.80733333,43.5489,-89.4658
944,6212,Mr Fuel,"I-55, EXIT 180",Pevely,MO,540,3.01566666,38.2867,-90.3988
945,6214,Pioneer Travel Plaza,"I-41, EXIT 60 & SR-145",Richfield,WI,444,3.21566666,43.2372,-88.2413
946,6215,Fuel Hub,"I-87, EXIT 21B",West Coxsackie,NY,12,3.599,,
947,6218,Loves Travel Stop #215,"I-40, EXIT 16 & US-40 BUS/US-66",Gallup,NM,580,3.43733333,35.5182,-108.7431
948,6219,Schatz Crossroads,US-2 /US-52,Minot,ND,452,3.549,48.2375,-101.278
949,6221,Loves Travel Stop #214,I-10 EXIT 37,El Paso,TX,640,3.07566666,31.8476,-106.43
950,6222,Quiktrip #236,"I-29/US-71, EXIT 18 & SR-92",Platte City,MO,400,2.999,39.3574,-94.7651
951,6227,Marlows Fuel Center,"I-20, EXIT 479",Dallas,TX,630,3.24066666,32.7935,-96.7667
952,6229,Fuel Mart #764,"I-70, EXIT 66 & SR- 54",South Vienna,OH,315,3.129,39.9294,-83.6138
953,6232,Oasis Truck Stop,"I-44 & SR-133, MM 145",Richland,MO,416,3.324,37.861,-92.3993
954,6242,Ta Foristell Travel Center,"I-70, EXIT 203",Foristell,MO,540,3.019,38.8156,-90.9627
955,6243,Garden Inn Travel Plaza,US-60/US-63,Cabool,MO,535,3.299,37.1262,-92.1032
956,6251,Breaux Bridge Valero #1408,"I-10 & SR-347, EXIT 115",Breaux Bridge,LA,730,3.499,30.2829,-91.9043
957,6252,Pilot Travel Centers #12,I-80 & I-90 EXIT 71,Perrysburg,OH,550,3.759,41.5377,-83.6413
958,6258,Caseys #6342,"I-29, EXIT 144 & US-169",Saint Joseph,MO,400,3.169,,
959,6271,Ta Denton Travel Center,"I-35, EXIT 471 & US-77",Denton,TX,630,3.254,33.2175,-97.1418
960,6275,Ta Seattle East Travel Center,"I-90, EXIT 34",North Bend,WA,962,3.959,47.49,-121.7741
961,6275,Ta Seattle East Travel Center,"I-90, EXIT 34",North Bend,WA,962,3.899,47.49,-121.7741
962,6275,Ta Seattle East Travel Center,"I-90, EXIT 34",North Bend,WA,962,3.859,47.49,-121.7741
963,6284,7-Eleven #40513,I-90/80-IN TOLL RD MM 22W,Portage,IN,365,3.999,41.5856,-87.1797
964,6286,Apple Market #526,"I-64, EXIT 94",Winchester,KY,410,2.91566666,38.0018,-84.1908
965,6290,Fuel King Napoleon Travel Center,"US-6/US-24/SR/CR-3, EXIT 41",Napoleon,OH,550,3.439,41.3977,-84.1244
966,6293,Petro Stopping Center #313,"I-40, EXIT 79",Milan,NM,580,3.57066666,35.1949,-107.8946
967,6296,Gray Truck Stop,US-71/US-136,Maryville,MO,400,3.26566666,40.3428,-94.8702
968,6299,Hwy 34 Truckstop,"US-34, EXIT 258",West Burlington,IA,345,3.374,40.8215,-91.1755
969,6305,I-95 Fuel Stop,"I-95, EXIT 126 & US-17/US-1",Fredericksburg,VA,180,3.264,38.2992,-77.4872
970,6307,Quiktrip #608,"I-70, MID RIVERS MALL",Saint Peters,MO,540,2.904,,
971,6308,Pilot Travel Centers #354,"I-64, EXIT 28",Simpsonville,KY,415,3.759,38.2167,-85.3515
972,6309,Winners Circle #1,"I-30 & US-270, EXIT 98A",Malvern,AR,695,3.35233333,34.3734,-92.8205
973,6310,Circle K #2707515,US-27/SR-25 & US-98/US-700/SR-700/SR-66,Sebring,FL,140,3.389,27.477,-81.453
974,6315,Ayerco #25,US-24,Taylor,MO,494,3.01566666,,
975,6318,Chisholm Corner #15,"I-35, EXIT 72 & US-19",Pauls Valley,OK,569,3.38733333,34.7231,-97.2281
976,6326,Kanza Travel Plaza,"I-35, EXIT 231 AND US-177",Braman,OK,500,3.02733333,36.9236,-97.3358
977,6327,Petro Stopping Center #312,"I-40 & I-75, EXIT 369",Knoxville,TN,405,3.42566666,35.9692,-83.9496
978,6330,Ta Edinburg Travel Center,I-69C/US-281 & FM-2812,Edinburg,TX,639,3.01066666,26.3196,-98.1597
979,6334,231 Plaza And Truck Stop,US-231/SR-75 & SR-20,Youngstown,FL,20,3.494,,
980,6341,Ta Rawlins Travel Center,"I-80, EXIT 214",Rawlins,WY,795,3.72233333,41.7849,-107.2265
981,6346,Speedway #4710,US-71/SR-60,Windom,MN,425,3.299,43.8736,-95.1201
982,6351,Flying J Travel Plaza #608,"I-10, EXIT 1",Ehrenberg,AZ,930,3.959,33.6175,-114.4883
983,6356,Circle K #2721536,ST 6 EAST,Batesville,MS,435,3.24066666,34.3148,-89.9249
984,6370,Ta Rockwall Travel Center,"I-30/US-67, EXIT 68 & SR-205",Rockwall,TX,630,3.13733333,32.9169,-96.4374
985,6374,Ta Elgin West Travel Center,I-90 &  US-20,Hampshire,IL,290,3.459,42.1124,-88.5118
986,6374,Ta Elgin West Travel Center,I-90 &  US-20,Hampshire,IL,290,3.539,42.1124,-88.5118
987,6374,Ta Elgin West Travel Center,I-90 &  US-20,Hampshire,IL,290,3.599,42.1124,-88.5118
988,6374,Ta Elgin West Travel Center,I-90 &  US-20,Hampshire,IL,290,3.499,42.1124,-88.5118
989,6374,Ta Elgin West Travel Center,I-90 &  US-20,Hampshire,IL,290,3.469,42.1124,-88.5118
990,6387,Flying J Franchise #966,"I-80, EXIT 229",Battle Mountain,NV,966,3.79233333,40.6299,-116.9518
991,6391,Toot N Totum #106,US-287,Dumas,TX,585,3.00566666,35.8613,-101.9642
992,6393,Pilot Travel Center #478,"I-64, EXIT 92",Leavenworth,IN,415,3.959,38.1997,-86.3454
993,6393,Pilot Travel Centers #478,"I-64, EXIT 92",Leavenworth,IN,415,3.959,38.1997,-86.3454
994,6401,Circle K #2723457,"I-10, EXIT 34-B",Gulfport,MS,715,2.989,30.4274,-89.0704
995,6434,Ampride All Round Truck Stop,US-20,Fort Dodge,IA,343,3.299,42.5098,-94.1751
996,6441,Grand Oil,"I-75, EXIT 41 & SR-80",London,KY,410,3.499,37.1175,-84.0767
997,6442,Clark Oil #49,US-84,Laurel,MS,620,2.999,31.6956,-89.1449
998,6448,Circle K #2723392,"I-59, EXIT 97 & US-84",Laurel,MS,620,2.95233333,31.6956,-89.1449
999,6462,Arco #471770,US-281 & SR-5,Dunseith,ND,452,3.499,48.813,-100.0622
1000,6468,Ta Sayre Travel Center,"I-40 & CEMETARY RD, EXIT 26",Sayre,OK,483,3.064,35.2966,-99.6286
1001,6480,Flying J #934,"I-84, EXIT 265",La Grande,OR,982,3.53566666,45.3242,-118.0865
1002,6492,Flicks,US-49,Richland,MS,760,2.999,32.2309,-90.1591
1003,6496,Speedy Express #38,"I-35, EXIT 305",Mathis,TX,625,3.199,28.0909,-97.817
1004,6502,Squaw Creek Travel Plaza,"I-29, EXIT 79 & US-159",Forest City,MO,400,3.339,39.9829,-95.1883
1005,6517,Hardys #5,"I-80, EXIT 4   4",Wendover,UT,835,3.499,40.7241,-114.025
1006,6518,Town Pump Food Store #310,"I-15, EXIT 164",Boulder,MT,816,3.559,46.2359,-112.1198
1007,6526,Tulip City Truck Stop,"I-196 & SR-40, EXIT 49",Holland,MI,344,3.739,42.7677,-86.0984
1008,6527,Zip Trip #50,"I-90, EXIT 426",Park City,MT,780,3.584,45.631,-108.9253
1009,6547,Flying J Travel Plaza #762,"I-90, EXIT 126 & SR-59",Gillette,WY,836,3.899,44.2752,-105.4982
1010,6562,Pilot #1323,"I-29, EXIT 35",Faucett,MO,400,3.27233333,39.6005,-94.7976
1011,6563,Road Ranger #282,"I-35, EXIT 500",Gainesville,TX,630,3.17566666,33.639,-97.1487
1012,6564,Flying J Franchise #970,US-395,Pasco,WA,925,4.599,46.2506,-119.1305
1013,6565,Ta Greeneville Travel Center,"I-81,  EXIT 36",Greeneville,TN,405,3.55233333,36.168,-82.8197
1014,6567,Yellowstone Truck Shop,"I-90, EXIT 330",Livingston,MT,786,3.649,45.6665,-110.5539
1015,6577,Ac & T Travel Center,"I-81, EXIT 5 W",Hagerstown,MD,70,3.659,39.6401,-77.7217
1016,6578,Pilot Travel Center #909- Town Pump,"I-15 & US-2, EXIT 363",Shelby,MT,815,3.63566666,48.5031,-111.8614
1017,6588,Town Pump Food Store #4300,"I-90, EXIT 249",Whitehall,MT,786,3.659,45.8709,-112.0976
1018,6593,Little America Travel Center,"I-40, EXIT 198",Flagstaff,AZ,930,3.539,35.1872,-111.6194
1019,6607,Transit Truck Stop,"I-97, EXIT 10",Millersville,MD,22,3.46566666,,
1020,6608,7-Eleven #35560,SR-16,Charlotte,NC,46,3.999,35.2083,-80.8303
1021,6628,Flying J Travel Plaza #682,"I-85, EXIT 150",Haw River,NC,65,3.94233333,36.0926,-79.3615
1022,6632,Ta Savannah Travel Center,"I-95/SR-405,  EXIT 87 & US-17/SR-25",Richmond Hill,GA,195,3.35066666,31.9012,-81.3125
1023,6633,Baker Truck Corral,"I-84, EXIT 304",Baker City,OR,982,3.42566666,44.7749,-117.832
1024,6640,Petro Stopping Center Johnstown,"I-25, EXIT 254",Johnstown,CO,800,3.42733333,40.3499,-104.9482
1025,6642,Ta Vero Beach Travel Center #197,"I-95/SR-9, EXIT 147 & SR-60",Vero Beach,FL,95,3.484,27.6463,-80.393
1026,6646,Family Express #35 (Discount Available),"I-65, EXIT 215 & SR-114",Rensselaer,IN,365,3.13233333,40.9375,-87.1684
1027,6655,Bp Dba Ta Elkton Travel Center,"I-95,  EXIT 109B",Elkton,MD,150,4.969,39.6066,-75.8209
1028,6659,Gurnee Truck Stop,US-41,Gurnee,IL,290,3.289,42.3708,-87.9392
1029,6659,Gurnee Truck Stop,US-41,Gurnee,IL,290,3.379,42.3708,-87.9392
1030,6661,Ta Franklin Travel Center,"I-65, EXIT 61",Franklin,TN,460,3.839,35.92,-86.8516
1031,6663,Ta Of Mocksville,"I-40, EXIT 170 & US-601",Mocksville,NC,46,3.699,35.9007,-80.5631
1032,6677,Roadway Travel Center,"I-29, EXIT 73",Sioux Falls,SD,530,3.199,43.5396,-96.7311
1033,6693,Sapp Bros Travel Center,US-77,Fremont,NE,486,3.34566666,41.4395,-96.4873
1034,6701,Jacks Truck Stop,"I-65, EXIT 304 & SR-69",Cullman,AL,615,3.999,34.1775,-86.8407
1035,6704,Fl Roberts,"I-91, EXIT 24",Whately,MA,100,3.559,,
1036,6716,Marathon,"I-29/US-81, EXIT 65 & I-94 BUS/US-10",Fargo,ND,341,3.449,46.8651,-96.8292
1037,6721,Stamart 1222,"I-29, EXIT 64",Fargo,ND,341,3.38566666,46.8651,-96.8292
1038,6725,Ta Express Grand Forks #948,"I-29, EXIT 141 & US-2",Grand Forks,ND,355,3.539,47.9214,-97.0884
1039,6734,Tomahawk Truck Stop,"I-25, EXIT 128",Fountain,CO,803,3.299,38.6886,-104.6829
1040,6736,Eagleville Travel Center,"I-35 & ROUTE N, EXIT 106",Eagleville,MO,320,2.93566666,40.4685,-93.9862
1041,6742,Holiday #3810,"I-94/US-52, EXIT 178 & SR-24",Clearwater,MN,453,3.22066666,45.4102,-94.0447
1042,6744,Flying J #550,US-2/US-52,Minot,ND,273,3.93566666,48.2375,-101.278
1043,6745,Tiger Truck Stop,"I-10, EXIT 139",Grosse Tete,LA,600,3.059,30.4148,-91.4395
1044,6755,Petro Stopping Center #326,"I-40, EXIT 161 & SR-391",North Little Rock,AR,695,3.20733333,34.7807,-92.2371
1045,6760,Betty Beavers Truckstop,"I-87, EXIT 32",Lewis,NY,12,3.719,,
1046,6760,Betty Beavers Truckstop,"I-87, EXIT 32",Lewis,NY,12,3.619,,
1047,6765,Circle C Travel Plaza,"I-95, EXIT 68 & SR-61",Walterboro,SC,195,3.079,32.901,-80.676
1048,6806,Onvo Travel Plaza,"I-78/US-22, EXIT 45 & SR-863",Kutztown,PA,90,3.32733333,40.5212,-75.7772
1049,6810,Ta Richmond,"I-95, EXIT 89 & SR-802",Ashland,VA,180,3.60566666,37.7597,-77.4716
1050,6811,Pump & Pantry #24,US-6/CR-74,Hastings,NE,330,3.399,40.5961,-98.39
1051,6823,Petro Stopping Center #301,"I-10, EXIT 37",El Paso,TX,640,3.124,31.8476,-106.43
1052,6840,Petro Deming,"I-10, EXIT 68",Deming,NM,640,3.38566666,32.2631,-107.7525
1053,6842,Flynns Truck Plaza,"US-20, EXIT 11 & SR-140",Shrewsbury,MA,175,3.61566666,,
1054,6845,Nebraskaland Tire Shop,"I-80, EXIT 237 & US-283",Lexington,NE,330,2.999,40.7779,-99.7461
1055,6850,Broken Wheel Truck Stop,"I-25, EXIT 135",Douglas,WY,790,3.759,42.7542,-105.3969
1056,6857,Ta Sparks Travel Center,"I-80, EXIT 19 & SR-659",Sparks,NV,966,3.899,39.5736,-119.7161
1057,6859,Prime Stop,US-81,Norfolk,NE,470,3.229,42.0324,-97.4217
1058,6864,Jjs Truck Stop,"I-30, EXIT 106",Malvern,AR,695,3.31566666,34.3734,-92.8205
1059,6869,Ta Wheeling Travel Center,"I-70, EXIT 11 & CR-41",Valley Grove,WV,165,3.529,40.0901,-80.5691
1060,6883,Pilot Travel Centers #517,US- 22 & SR-322,Duncannon,PA,70,4.199,40.3952,-77.0277
1061,6885,Go Mart Food Store #31,"I-77, EXIT 95 & SR-61",Charleston,WV,44,3.499,38.3484,-81.6322
1062,6886,Pwi #535,"I-70, EXIT 47",Palisade,CO,800,3.379,39.1084,-108.3573
1063,6897,Speedee Mart #2890,US-20 & US-83,Valentine,NE,475,3.329,42.8758,-100.5466
1064,6901,Prime Stop,US-275,Wisner,NE,470,3.259,41.9891,-96.9147
1065,6915,Flite Line Sunoco,"I-95, EXIT 3",Portsmouth,NH,34,3.69566666,43.058,-70.7826
1066,6927,Torch 85 Truck Plaza,"I-85, EXIT 42",Tuskegee,AL,720,3.27233333,32.4409,-85.7131
1067,6944,Crossroads Truck Stop,"I-82, EXIT 1 & US-730",Umatilla,OR,982,3.239,45.9119,-119.3133
1068,6948,Pilot #4563,"I-8I, EXIT 77",Harrisburg,PA,70,3.869,40.2752,-76.8843
1069,6951,Arrowhead Travel Plaza,"I-84, EXIT 216 & SR 331,",Pendleton,OR,982,3.259,45.6757,-118.8201
1070,6954,Bolla Market #198,SR-17MAHWA,Mahwah,NJ,115,3.58566666,,
1071,6960,Flying J Travel Plaza #761,"I-80 & US-189, EXIT 3",Evanston,WY,835,3.699,41.2602,-110.9646
1072,6961,Little America,"I-80, EXIT 358 & I-25, EXIT 9 & US-30",Cheyenne,WY,795,3.709,41.135,-104.7902
1073,6962,Little America Travel Center,"I-80, EXIT 68 & SR-374",Little America,WY,835,3.52566666,41.547,-109.8642
1074,6963,Atlantis Fresh Market #553,"I-84, EXIT 1",Montague,NJ,120,3.509,,
1075,6968,R Store #4513,US-41,Fond Du Lac,WI,360,3.299,,
1076,6970,Ta Twin City East Travel Center,I-94  EXIT 4 & US-12,Hudson,WI,450,3.54733333,44.9639,-92.7312
1077,6971,Kwik Trip #1013,"I-41, EXIT 57 & SR-167",Richfield,WI,444,3.39066666,43.2372,-88.2413
1078,6975,Truckers Inn Stop,"I-90/I-94, EXIT 132 & US-51",De Forest,WI,420,3.199,,
1079,6976,Moasis Truck Center,US-41,Little Chute,WI,444,3.199,44.2906,-88.3208
1080,6980,Ta Madison Travel Center,"I-90/I-94/I-39, EXIT 132 & US-51",De Forest,WI,420,3.839,,
1081,6981,Kwik Trip #1197,"US-151, EXIT 26",Belmont,WI,335,3.564,42.7379,-90.3346
1082,6984,Ta Hurricane Travel Center,"I-64, EXIT 39 & SR-34",Hurricane,WV,255,3.63233333,38.4293,-82.0182
1083,6986,Loves Travel Stop #448,"I-5, EXIT 136B, SR-509",Tacoma,WA,977,4.589,47.2431,-122.4531
1084,6986,Loves Travel Stops #448,"I-5, EXIT 136B, SR-509",Tacoma,WA,977,4.589,47.2431,-122.4531
1085,6987,One9 #965,"I-90, EXIT 109 & US-97",Ellensburg,WA,977,3.859,46.9999,-120.5475
1086,6987,One9 #965,"I-90, EXIT 109 & US-97",Ellensburg,WA,977,3.839,46.9999,-120.5475
1087,6987,One9 #965,"I-90, EXIT 109 & US-97",Ellensburg,WA,977,3.899,46.9999,-120.5475
1088,6992,Flying J #1169,"I-5, EXIT 99",Tumwater,WA,977,4.599,46.9891,-122.9175
1089,6994,Flying J Franchise #967,"I-90, EXIT 286",Spokane,WA,970,4.059,47.6671,-117.433
1090,6994,Flying J Franchise #967,"I-90, EXIT 286",Spokane,WA,970,3.999,47.6671,-117.433
1091,6994,Flying J Franchise #967,"I-90, EXIT 286",Spokane,WA,970,4.029,47.6671,-117.433
1092,6994,Flying J Franchise #967,"I-90, EXIT 286",Spokane,WA,970,4.159,47.6671,-117.433
1093,6994,Flying J Franchise #967,"I-90, EXIT 286",Spokane,WA,970,3.929,47.6671,-117.433
1094,6999,Simmons Travel Center,"I-85, EXIT 4 & SR-93/SR-903",Bracey,VA,180,3.099,36.5762,-78.1107
1095,7003,Ta Ashland Travel Center,"I-95, EXIT 92 & SR-54",Ashland,VA,180,3.64233333,37.7597,-77.4716
1096,7004,Franks Trucking Center,"I-264, EXIT 13B",Chesapeake,VA,130,3.449,36.6778,-76.3023
1097,7005,Petro Stopping Center,"I-81 & I-64, EXIT 205",Raphine,VA,185,3.659,,
1098,7007,Kum & Go #0201,"I-80, EXIT 242",Coralville,IA,380,3.294,41.699,-91.5967
1099,7013,Ernies Truck Plaza,"I-15, EXIT 112",Beaver,UT,910,3.399,38.2759,-112.6383
1100,7016,Ta Salt Lake City Travel Center,"I-80, EXIT 99",Tooele,UT,835,3.769,40.5393,-112.3082
1101,7018,Flying J Travel Plaza #746,"I-15 & I-80 SR 201, EXIT 305",Salt Lake City,UT,835,3.73233333,40.7776,-111.9311
1102,7023,Ta Amarillo West Travel Center,"I-40, EXIT 74",Amarillo,TX,585,3.279,35.1984,-101.8316
1103,7037,Sams Truck Stop,"I-10, EXIT 138",Van Horn,TX,640,3.999,31.0407,-104.8341
1104,7045,Bubble City Truck Stop,US-64,Farmington,NM,614,3.70566666,36.7555,-108.1823
1105,7051,Pilot #887,US-84 & US-180,Snyder,TX,575,3.24566666,32.7133,-100.9116
1106,7056,Ta Sweetwater Travel Center,"I-20, EXIT 242",Sweetwater,TX,575,3.15233333,32.4692,-100.4092
1107,7058,Yesway #1125,"I-27, EXIT 1C",Lubbock,TX,700,2.969,33.5657,-101.8879
1108,7059,Ta Big Spring Travel Center,"I-20, EXIT 177 & US-87",Big Spring,TX,612,3.699,32.2389,-101.4799
1109,7064,Speedway #9804,"I-10, EXIT 25",El Paso,TX,640,3.41566666,31.8476,-106.43
1110,7066,Refuel #328,"I-35,  EXIT 204",San Marcos,TX,595,2.999,29.8734,-97.9356
1111,7072,Ta Antioch Travel Center,"I-24, EXIT 62",Antioch,TN,460,3.50566666,,
1112,7077,The Tennessean Truckstop,"I-65, EXIT 22 & US-31 ALT/SR-11",Cornersville,TN,460,3.799,35.3634,-86.8584
1113,7078,Ta Denmark Travel Center,"I-40 & SR-138, EXIT 68",Denmark,TN,435,3.539,,
1114,7080,One9 #1422,"I-40, EXIT 197",Moriarty,NM,580,3.11566666,35.0034,-106.0444
1115,7082,Chevron,"I-65, EXIT 6",Ardmore,TN,460,3.599,35.0031,-86.8548
1116,7084,Holiday Stationstore #2746500,US-12 & US-281,Aberdeen,SD,248,3.114,45.4649,-98.4686
1117,7087,Pilot #599,"I-90, EXIT 192 & I-90 BUS/US-83",Murdo,SD,506,3.799,43.8893,-100.7142
1118,7088,Flying J Franchise #931,"I-90, EXIT 61",Rapid City,SD,506,3.15733333,44.0716,-103.2204
1119,7092,Loves Travel Stop #445,I-90 EXIT 399 & SR 115,Sioux Falls,SD,530,3.889,43.5396,-96.7311
1120,7095,Ta Manning Travel Center,"I-95, EXIT 119",Manning,SC,135,3.51733333,33.6933,-80.2167
1121,7106,Pilot Dealer #1163,"I-80, EXIT 42",Emlenton,PA,165,4.03566666,41.1806,-79.7073
1122,7112,Ta Harrisburg Travel Center,"I-81, EXIT 77 & SR-39",Harrisburg,PA,70,3.81566666,40.2752,-76.8843
1123,7116,Ta Milesburg Travel Center,"I-80, EXIT 158",Milesburg,PA,14,4.049,40.9426,-77.792
1124,7121,Ta Bloomsburg Travel Center,"I-80, EXIT 232",Bloomsburg,PA,138,3.95733333,41.0027,-76.4561
1125,7126,Sapp Bros Travel Center,"I-80, EXIT 120",Clearfield,PA,14,3.899,41.0216,-78.439
1126,7128,Flying J #518,"I-78, EXIT 10 (PA 645)",Myerstown,PA,208,3.869,40.3722,-76.3055
1127,7129,Ta Brookville Travel Center,"I-80 EXIT 78, & SR-36",Brookville,PA,14,4.029,41.1615,-79.0827
1128,7131,Ta Breezewood Travel Center,"I-76 & US30, EXIT 161",Breezewood,PA,14,4.299,,
1129,7132,Terrible Herbst Dba/One9 #1395,"I-15, EXIT 12",Jean,NV,910,3.459,,
1130,7135,Petro Stopping Center #336,"I-81, EXIT 52 & I-76, EXIT 226",Carlisle,PA,70,4.149,40.2,-77.2034
1131,7136,Ta Lamar Travel Center,"I-80, EXIT 173 & SR-64",Lamar,PA,14,4.03566666,,
